[
  {
    "city_geo_id": 1000000,
    "city": "Aartselaar",
    "city_full": "Aartselaar",
    "country_geo_id": 23,
    "area": "",
    "lat": 51.13404,
    "lng": 4.38797,
    "region1": "Région Flamande",
    "region2": "Antwerpen",
    "region3": "Antwerpen",
    "region4": "Aartselaar",
    "state_geo_id": 10000,
    "zip": "2630",
    "alias": []
  },
  {
    "city_geo_id": 1000001,
    "city": "Antwerpen",
    "city_full": "Antwerpen (2000)",
    "country_geo_id": 23,
    "area": "",
    "lat": 51.21879,
    "lng": 4.39355,
    "region1": "Région Flamande",
    "region2": "Antwerpen",
    "region3": "Antwerpen",
    "region4": "Antwerpen",
    "state_geo_id": 10000,
    "zip": "2000",
    "alias": []
  },
  {
    "city_geo_id": 1000002,
    "city": "Antwerpen",
    "city_full": "Antwerpen (2018)",
    "country_geo_id": 23,
    "area": "",
    "lat": 51.20494,
    "lng": 4.4142,
    "region1": "Région Flamande",
    "region2": "Antwerpen",
    "region3": "Antwerpen",
    "region4": "Antwerpen",
    "state_geo_id": 10000,
    "zip": "2018",
    "alias": []
  },
  {
    "city_geo_id": 1000003,
    "city": "Antwerpen",
    "city_full": "Antwerpen (2020)",
    "country_geo_id": 23,
    "area": "",
    "lat": 51.22058,
    "lng": 4.39972,
    "region1": "Région Flamande",
    "region2": "Antwerpen",
    "region3": "Antwerpen",
    "region4": "Antwerpen",
    "state_geo_id": 10000,
    "zip": "2020",
    "alias": []
  },
  {
    "city_geo_id": 1000004,
    "city": "Antwerpen",
    "city_full": "Antwerpen (2030)",
    "country_geo_id": 23,
    "area": "",
    "lat": 51.19147,
    "lng": 4.38105,
    "region1": "Région Flamande",
    "region2": "Antwerpen",
    "region3": "Antwerpen",
    "region4": "Antwerpen",
    "state_geo_id": 10000,
    "zip": "2030",
    "alias": []
  },
  {
    "city_geo_id": 1000005,
    "city": "Antwerpen",
    "city_full": "Antwerpen (2040)",
    "country_geo_id": 23,
    "area": "",
    "lat": 51.33655,
    "lng": 4.29317,
    "region1": "Région Flamande",
    "region2": "Antwerpen",
    "region3": "Antwerpen",
    "region4": "Antwerpen",
    "state_geo_id": 10000,
    "zip": "2040",
    "alias": []
  },
  {
    "city_geo_id": 1000006,
    "city": "Antwerpen",
    "city_full": "Antwerpen (2050)",
    "country_geo_id": 23,
    "area": "",
    "lat": 51.22263,
    "lng": 4.36899,
    "region1": "Région Flamande",
    "region2": "Antwerpen",
    "region3": "Antwerpen",
    "region4": "Antwerpen",
    "state_geo_id": 10000,
    "zip": "2050",
    "alias": []
  },
  {
    "city_geo_id": 1000007,
    "city": "Antwerpen",
    "city_full": "Antwerpen (2060)",
    "country_geo_id": 23,
    "area": "",
    "lat": 51.22882,
    "lng": 4.4284,
    "region1": "Région Flamande",
    "region2": "Antwerpen",
    "region3": "Antwerpen",
    "region4": "Antwerpen",
    "state_geo_id": 10000,
    "zip": "2060",
    "alias": []
  },
  {
    "city_geo_id": 1000008,
    "city": "Berchem",
    "city_full": "Berchem (2600)",
    "country_geo_id": 23,
    "area": "",
    "lat": 51.19294,
    "lng": 4.42133,
    "region1": "Région Flamande",
    "region2": "Antwerpen",
    "region3": "Antwerpen",
    "region4": "Antwerpen",
    "state_geo_id": 10000,
    "zip": "2600",
    "alias": []
  },
  {
    "city_geo_id": 1000009,
    "city": "Berendrecht",
    "city_full": "Berendrecht",
    "country_geo_id": 23,
    "area": "",
    "lat": 51.34011,
    "lng": 4.31445,
    "region1": "Région Flamande",
    "region2": "Antwerpen",
    "region3": "Antwerpen",
    "region4": "Antwerpen",
    "state_geo_id": 10000,
    "zip": "2040",
    "alias": []
  },
  {
    "city_geo_id": 1000010,
    "city": "Borgerhout",
    "city_full": "Borgerhout",
    "country_geo_id": 23,
    "area": "",
    "lat": 51.21345,
    "lng": 4.43317,
    "region1": "Région Flamande",
    "region2": "Antwerpen",
    "region3": "Antwerpen",
    "region4": "Antwerpen",
    "state_geo_id": 10000,
    "zip": "2140",
    "alias": []
  },
  {
    "city_geo_id": 1000011,
    "city": "Deurne",
    "city_full": "Deurne (2100)",
    "country_geo_id": 23,
    "area": "",
    "lat": 51.22171,
    "lng": 4.46155,
    "region1": "Région Flamande",
    "region2": "Antwerpen",
    "region3": "Antwerpen",
    "region4": "Antwerpen",
    "state_geo_id": 10000,
    "zip": "2100",
    "alias": []
  },
  {
    "city_geo_id": 1000012,
    "city": "Ekeren",
    "city_full": "Ekeren",
    "country_geo_id": 23,
    "area": "",
    "lat": 51.27714,
    "lng": 4.41827,
    "region1": "Région Flamande",
    "region2": "Antwerpen",
    "region3": "Antwerpen",
    "region4": "Antwerpen",
    "state_geo_id": 10000,
    "zip": "2180",
    "alias": []
  },
  {
    "city_geo_id": 1000013,
    "city": "Hoboken",
    "city_full": "Hoboken",
    "country_geo_id": 23,
    "area": "",
    "lat": 51.17456,
    "lng": 4.35084,
    "region1": "Région Flamande",
    "region2": "Antwerpen",
    "region3": "Antwerpen",
    "region4": "Antwerpen",
    "state_geo_id": 10000,
    "zip": "2660",
    "alias": []
  },
  {
    "city_geo_id": 1000014,
    "city": "Lillo",
    "city_full": "Lillo",
    "country_geo_id": 23,
    "area": "",
    "lat": 51.30458,
    "lng": 4.28977,
    "region1": "Région Flamande",
    "region2": "Antwerpen",
    "region3": "Antwerpen",
    "region4": "Antwerpen",
    "state_geo_id": 10000,
    "zip": "2040",
    "alias": []
  },
  {
    "city_geo_id": 1000015,
    "city": "Merksem",
    "city_full": "Merksem",
    "country_geo_id": 23,
    "area": "",
    "lat": 51.24214,
    "lng": 4.44104,
    "region1": "Région Flamande",
    "region2": "Antwerpen",
    "region3": "Antwerpen",
    "region4": "Antwerpen",
    "state_geo_id": 10000,
    "zip": "2170",
    "alias": []
  },
  {
    "city_geo_id": 1000016,
    "city": "Wilrijk",
    "city_full": "Wilrijk",
    "country_geo_id": 23,
    "area": "",
    "lat": 51.16943,
    "lng": 4.39434,
    "region1": "Région Flamande",
    "region2": "Antwerpen",
    "region3": "Antwerpen",
    "region4": "Antwerpen",
    "state_geo_id": 10000,
    "zip": "2610",
    "alias": []
  },
  {
    "city_geo_id": 1000017,
    "city": "Zandvliet",
    "city_full": "Zandvliet",
    "country_geo_id": 23,
    "area": "",
    "lat": 51.3603,
    "lng": 4.30794,
    "region1": "Région Flamande",
    "region2": "Antwerpen",
    "region3": "Antwerpen",
    "region4": "Antwerpen",
    "state_geo_id": 10000,
    "zip": "2040",
    "alias": []
  },
  {
    "city_geo_id": 1000018,
    "city": "Boechout",
    "city_full": "Boechout",
    "country_geo_id": 23,
    "area": "",
    "lat": 51.16165,
    "lng": 4.48942,
    "region1": "Région Flamande",
    "region2": "Antwerpen",
    "region3": "Antwerpen",
    "region4": "Boechout",
    "state_geo_id": 10000,
    "zip": "2530",
    "alias": []
  },
  {
    "city_geo_id": 1000019,
    "city": "Vremde",
    "city_full": "Vremde",
    "country_geo_id": 23,
    "area": "",
    "lat": 51.17487,
    "lng": 4.52318,
    "region1": "Région Flamande",
    "region2": "Antwerpen",
    "region3": "Antwerpen",
    "region4": "Boechout",
    "state_geo_id": 10000,
    "zip": "2531",
    "alias": []
  },
  {
    "city_geo_id": 1000020,
    "city": "Boom",
    "city_full": "Boom",
    "country_geo_id": 23,
    "area": "",
    "lat": 51.086,
    "lng": 4.36349,
    "region1": "Région Flamande",
    "region2": "Antwerpen",
    "region3": "Antwerpen",
    "region4": "Boom",
    "state_geo_id": 10000,
    "zip": "2850",
    "alias": []
  },
  {
    "city_geo_id": 1000021,
    "city": "Borsbeek",
    "city_full": "Borsbeek",
    "country_geo_id": 23,
    "area": "",
    "lat": 51.19384,
    "lng": 4.48667,
    "region1": "Région Flamande",
    "region2": "Antwerpen",
    "region3": "Antwerpen",
    "region4": "Antwerpen",
    "state_geo_id": 10000,
    "zip": "2150",
    "alias": []
  },
  {
    "city_geo_id": 1000022,
    "city": "Brasschaat",
    "city_full": "Brasschaat",
    "country_geo_id": 23,
    "area": "",
    "lat": 51.28999,
    "lng": 4.4917,
    "region1": "Région Flamande",
    "region2": "Antwerpen",
    "region3": "Antwerpen",
    "region4": "Brasschaat",
    "state_geo_id": 10000,
    "zip": "2930",
    "alias": []
  },
  {
    "city_geo_id": 1000023,
    "city": "Brecht",
    "city_full": "Brecht",
    "country_geo_id": 23,
    "area": "",
    "lat": 51.35114,
    "lng": 4.64281,
    "region1": "Région Flamande",
    "region2": "Antwerpen",
    "region3": "Antwerpen",
    "region4": "Brecht",
    "state_geo_id": 10000,
    "zip": "2960",
    "alias": []
  },
  {
    "city_geo_id": 1000024,
    "city": "Sint-Job-in-'t-Goor",
    "city_full": "Sint-Job-in-'t-Goor",
    "country_geo_id": 23,
    "area": "",
    "lat": 51.29278,
    "lng": 4.58327,
    "region1": "Région Flamande",
    "region2": "Antwerpen",
    "region3": "Antwerpen",
    "region4": "Brecht",
    "state_geo_id": 10000,
    "zip": "2960",
    "alias": [
      {
        "lang": "NL",
        "alias": "Sint-Job-in-t-Goor"
      }
    ]
  },
  {
    "city_geo_id": 1000025,
    "city": "Sint-Lenaarts",
    "city_full": "Sint-Lenaarts",
    "country_geo_id": 23,
    "area": "",
    "lat": 51.34708,
    "lng": 4.67917,
    "region1": "Région Flamande",
    "region2": "Antwerpen",
    "region3": "Antwerpen",
    "region4": "Brecht",
    "state_geo_id": 10000,
    "zip": "2960",
    "alias": []
  },
  {
    "city_geo_id": 1000026,
    "city": "Edegem",
    "city_full": "Edegem",
    "country_geo_id": 23,
    "area": "",
    "lat": 51.15679,
    "lng": 4.44385,
    "region1": "Région Flamande",
    "region2": "Antwerpen",
    "region3": "Antwerpen",
    "region4": "Edegem",
    "state_geo_id": 10000,
    "zip": "2650",
    "alias": []
  },
  {
    "city_geo_id": 1000027,
    "city": "Essen",
    "city_full": "Essen",
    "country_geo_id": 23,
    "area": "",
    "lat": 51.46467,
    "lng": 4.45135,
    "region1": "Région Flamande",
    "region2": "Antwerpen",
    "region3": "Antwerpen",
    "region4": "Essen",
    "state_geo_id": 10000,
    "zip": "2910",
    "alias": []
  },
  {
    "city_geo_id": 1000028,
    "city": "Hemiksem",
    "city_full": "Hemiksem",
    "country_geo_id": 23,
    "area": "",
    "lat": 51.14431,
    "lng": 4.34605,
    "region1": "Région Flamande",
    "region2": "Antwerpen",
    "region3": "Antwerpen",
    "region4": "Hemiksem",
    "state_geo_id": 10000,
    "zip": "2620",
    "alias": []
  },
  {
    "city_geo_id": 1000029,
    "city": "Hove",
    "city_full": "Hove",
    "country_geo_id": 23,
    "area": "",
    "lat": 51.15398,
    "lng": 4.47053,
    "region1": "Région Flamande",
    "region2": "Antwerpen",
    "region3": "Antwerpen",
    "region4": "Hove",
    "state_geo_id": 10000,
    "zip": "2540",
    "alias": []
  },
  {
    "city_geo_id": 1000030,
    "city": "Kalmthout",
    "city_full": "Kalmthout",
    "country_geo_id": 23,
    "area": "",
    "lat": 51.38277,
    "lng": 4.47631,
    "region1": "Région Flamande",
    "region2": "Antwerpen",
    "region3": "Antwerpen",
    "region4": "Kalmthout",
    "state_geo_id": 10000,
    "zip": "2920",
    "alias": []
  },
  {
    "city_geo_id": 1000031,
    "city": "Kapellen",
    "city_full": "Kapellen (2950)",
    "country_geo_id": 23,
    "area": "",
    "lat": 51.3168,
    "lng": 4.42787,
    "region1": "Région Flamande",
    "region2": "Antwerpen",
    "region3": "Antwerpen",
    "region4": "Kapellen",
    "state_geo_id": 10000,
    "zip": "2950",
    "alias": []
  },
  {
    "city_geo_id": 1000032,
    "city": "Kontich",
    "city_full": "Kontich",
    "country_geo_id": 23,
    "area": "",
    "lat": 51.13469,
    "lng": 4.44484,
    "region1": "Région Flamande",
    "region2": "Antwerpen",
    "region3": "Antwerpen",
    "region4": "Kontich",
    "state_geo_id": 10000,
    "zip": "2550",
    "alias": []
  },
  {
    "city_geo_id": 1000033,
    "city": "Waarloos",
    "city_full": "Waarloos",
    "country_geo_id": 23,
    "area": "",
    "lat": 51.10271,
    "lng": 4.45608,
    "region1": "Région Flamande",
    "region2": "Antwerpen",
    "region3": "Antwerpen",
    "region4": "Kontich",
    "state_geo_id": 10000,
    "zip": "2550",
    "alias": []
  },
  {
    "city_geo_id": 1000034,
    "city": "Lint",
    "city_full": "Lint",
    "country_geo_id": 23,
    "area": "",
    "lat": 51.12768,
    "lng": 4.49549,
    "region1": "Région Flamande",
    "region2": "Antwerpen",
    "region3": "Antwerpen",
    "region4": "Lint",
    "state_geo_id": 10000,
    "zip": "2547",
    "alias": []
  },
  {
    "city_geo_id": 1000035,
    "city": "Malle",
    "city_full": "Malle",
    "country_geo_id": 23,
    "area": "",
    "lat": 51.28465,
    "lng": 4.70519,
    "region1": "Région Flamande",
    "region2": "Antwerpen",
    "region3": "Antwerpen",
    "region4": "Malle",
    "state_geo_id": 10000,
    "zip": "2390",
    "alias": []
  },
  {
    "city_geo_id": 1000036,
    "city": "Oostmalle",
    "city_full": "Oostmalle",
    "country_geo_id": 23,
    "area": "",
    "lat": 51.30119,
    "lng": 4.73192,
    "region1": "Région Flamande",
    "region2": "Antwerpen",
    "region3": "Antwerpen",
    "region4": "Malle",
    "state_geo_id": 10000,
    "zip": "2390",
    "alias": []
  },
  {
    "city_geo_id": 1000037,
    "city": "Westmalle",
    "city_full": "Westmalle",
    "country_geo_id": 23,
    "area": "",
    "lat": 51.30115,
    "lng": 4.69086,
    "region1": "Région Flamande",
    "region2": "Antwerpen",
    "region3": "Antwerpen",
    "region4": "Malle",
    "state_geo_id": 10000,
    "zip": "2390",
    "alias": []
  },
  {
    "city_geo_id": 1000038,
    "city": "Mortsel",
    "city_full": "Mortsel",
    "country_geo_id": 23,
    "area": "",
    "lat": 51.17067,
    "lng": 4.45083,
    "region1": "Région Flamande",
    "region2": "Antwerpen",
    "region3": "Antwerpen",
    "region4": "Mortsel",
    "state_geo_id": 10000,
    "zip": "2640",
    "alias": []
  },
  {
    "city_geo_id": 1000039,
    "city": "Niel",
    "city_full": "Niel",
    "country_geo_id": 23,
    "area": "",
    "lat": 51.10954,
    "lng": 4.32735,
    "region1": "Région Flamande",
    "region2": "Antwerpen",
    "region3": "Antwerpen",
    "region4": "Niel",
    "state_geo_id": 10000,
    "zip": "2845",
    "alias": []
  },
  {
    "city_geo_id": 1000040,
    "city": "Broechem",
    "city_full": "Broechem",
    "country_geo_id": 23,
    "area": "",
    "lat": 51.18134,
    "lng": 4.60198,
    "region1": "Région Flamande",
    "region2": "Antwerpen",
    "region3": "Antwerpen",
    "region4": "Ranst",
    "state_geo_id": 10000,
    "zip": "2520",
    "alias": []
  },
  {
    "city_geo_id": 1000041,
    "city": "Emblem",
    "city_full": "Emblem",
    "country_geo_id": 23,
    "area": "",
    "lat": 51.16236,
    "lng": 4.60633,
    "region1": "Région Flamande",
    "region2": "Antwerpen",
    "region3": "Antwerpen",
    "region4": "Ranst",
    "state_geo_id": 10000,
    "zip": "2520",
    "alias": []
  },
  {
    "city_geo_id": 1000042,
    "city": "Oelegem",
    "city_full": "Oelegem",
    "country_geo_id": 23,
    "area": "",
    "lat": 51.21085,
    "lng": 4.59719,
    "region1": "Région Flamande",
    "region2": "Antwerpen",
    "region3": "Antwerpen",
    "region4": "Ranst",
    "state_geo_id": 10000,
    "zip": "2520",
    "alias": []
  },
  {
    "city_geo_id": 1000043,
    "city": "Ranst",
    "city_full": "Ranst",
    "country_geo_id": 23,
    "area": "",
    "lat": 51.19039,
    "lng": 4.56089,
    "region1": "Région Flamande",
    "region2": "Antwerpen",
    "region3": "Antwerpen",
    "region4": "Ranst",
    "state_geo_id": 10000,
    "zip": "2520",
    "alias": []
  },
  {
    "city_geo_id": 1000044,
    "city": "Reet",
    "city_full": "Reet",
    "country_geo_id": 23,
    "area": "",
    "lat": 51.1012,
    "lng": 4.41267,
    "region1": "Région Flamande",
    "region2": "Antwerpen",
    "region3": "Antwerpen",
    "region4": "Rumst",
    "state_geo_id": 10000,
    "zip": "2840",
    "alias": []
  },
  {
    "city_geo_id": 1000045,
    "city": "Rumst",
    "city_full": "Rumst",
    "country_geo_id": 23,
    "area": "",
    "lat": 51.07813,
    "lng": 4.4233,
    "region1": "Région Flamande",
    "region2": "Antwerpen",
    "region3": "Antwerpen",
    "region4": "Rumst",
    "state_geo_id": 10000,
    "zip": "2840",
    "alias": []
  },
  {
    "city_geo_id": 1000046,
    "city": "Terhagen",
    "city_full": "Terhagen",
    "country_geo_id": 23,
    "area": "",
    "lat": 51.08009,
    "lng": 4.39712,
    "region1": "Région Flamande",
    "region2": "Antwerpen",
    "region3": "Antwerpen",
    "region4": "Rumst",
    "state_geo_id": 10000,
    "zip": "2840",
    "alias": []
  },
  {
    "city_geo_id": 1000047,
    "city": "Schelle",
    "city_full": "Schelle",
    "country_geo_id": 23,
    "area": "",
    "lat": 51.12902,
    "lng": 4.33561,
    "region1": "Région Flamande",
    "region2": "Antwerpen",
    "region3": "Antwerpen",
    "region4": "Schelle",
    "state_geo_id": 10000,
    "zip": "2627",
    "alias": []
  },
  {
    "city_geo_id": 1000048,
    "city": "'s Gravenwezel",
    "city_full": "'s Gravenwezel",
    "country_geo_id": 23,
    "area": "",
    "lat": 51.26321,
    "lng": 4.55474,
    "region1": "Région Flamande",
    "region2": "Antwerpen",
    "region3": "Antwerpen",
    "region4": "Schilde",
    "state_geo_id": 10000,
    "zip": "2970",
    "alias": []
  },
  {
    "city_geo_id": 1000049,
    "city": "Schilde",
    "city_full": "Schilde",
    "country_geo_id": 23,
    "area": "",
    "lat": 51.23198,
    "lng": 4.58341,
    "region1": "Région Flamande",
    "region2": "Antwerpen",
    "region3": "Antwerpen",
    "region4": "Schilde",
    "state_geo_id": 10000,
    "zip": "2970",
    "alias": []
  },
  {
    "city_geo_id": 1000050,
    "city": "Schoten",
    "city_full": "Schoten",
    "country_geo_id": 23,
    "area": "",
    "lat": 51.251,
    "lng": 4.49777,
    "region1": "Région Flamande",
    "region2": "Antwerpen",
    "region3": "Antwerpen",
    "region4": "Schoten",
    "state_geo_id": 10000,
    "zip": "2900",
    "alias": []
  },
  {
    "city_geo_id": 1000051,
    "city": "Hoevenen",
    "city_full": "Hoevenen",
    "country_geo_id": 23,
    "area": "",
    "lat": 51.30578,
    "lng": 4.40322,
    "region1": "Région Flamande",
    "region2": "Antwerpen",
    "region3": "Antwerpen",
    "region4": "Stabroek",
    "state_geo_id": 10000,
    "zip": "2940",
    "alias": []
  },
  {
    "city_geo_id": 1000052,
    "city": "Stabroek",
    "city_full": "Stabroek",
    "country_geo_id": 23,
    "area": "",
    "lat": 51.33195,
    "lng": 4.36483,
    "region1": "Région Flamande",
    "region2": "Antwerpen",
    "region3": "Antwerpen",
    "region4": "Stabroek",
    "state_geo_id": 10000,
    "zip": "2940",
    "alias": []
  },
  {
    "city_geo_id": 1000053,
    "city": "Wijnegem",
    "city_full": "Wijnegem",
    "country_geo_id": 23,
    "area": "",
    "lat": 51.22776,
    "lng": 4.52385,
    "region1": "Région Flamande",
    "region2": "Antwerpen",
    "region3": "Antwerpen",
    "region4": "Wijnegem",
    "state_geo_id": 10000,
    "zip": "2110",
    "alias": []
  },
  {
    "city_geo_id": 1000054,
    "city": "Wommelgem",
    "city_full": "Wommelgem",
    "country_geo_id": 23,
    "area": "",
    "lat": 51.20378,
    "lng": 4.5231,
    "region1": "Région Flamande",
    "region2": "Antwerpen",
    "region3": "Antwerpen",
    "region4": "Wommelgem",
    "state_geo_id": 10000,
    "zip": "2160",
    "alias": []
  },
  {
    "city_geo_id": 1000055,
    "city": "Loenhout",
    "city_full": "Loenhout",
    "country_geo_id": 23,
    "area": "",
    "lat": 51.39905,
    "lng": 4.64408,
    "region1": "Région Flamande",
    "region2": "Antwerpen",
    "region3": "Antwerpen",
    "region4": "Wuustwezel",
    "state_geo_id": 10000,
    "zip": "2990",
    "alias": []
  },
  {
    "city_geo_id": 1000056,
    "city": "Wuustwezel",
    "city_full": "Wuustwezel",
    "country_geo_id": 23,
    "area": "",
    "lat": 51.39106,
    "lng": 4.59115,
    "region1": "Région Flamande",
    "region2": "Antwerpen",
    "region3": "Antwerpen",
    "region4": "Wuustwezel",
    "state_geo_id": 10000,
    "zip": "2990",
    "alias": []
  },
  {
    "city_geo_id": 1000057,
    "city": "Massenhoven",
    "city_full": "Massenhoven",
    "country_geo_id": 23,
    "area": "",
    "lat": 51.19936,
    "lng": 4.63599,
    "region1": "Région Flamande",
    "region2": "Antwerpen",
    "region3": "Antwerpen",
    "region4": "Zandhoven",
    "state_geo_id": 10000,
    "zip": "2240",
    "alias": []
  },
  {
    "city_geo_id": 1000058,
    "city": "Pulderbos",
    "city_full": "Pulderbos",
    "country_geo_id": 23,
    "area": "",
    "lat": 51.21768,
    "lng": 4.69192,
    "region1": "Région Flamande",
    "region2": "Antwerpen",
    "region3": "Antwerpen",
    "region4": "Zandhoven",
    "state_geo_id": 10000,
    "zip": "2242",
    "alias": []
  },
  {
    "city_geo_id": 1000059,
    "city": "Pulle",
    "city_full": "Pulle",
    "country_geo_id": 23,
    "area": "",
    "lat": 51.20492,
    "lng": 4.71382,
    "region1": "Région Flamande",
    "region2": "Antwerpen",
    "region3": "Antwerpen",
    "region4": "Zandhoven",
    "state_geo_id": 10000,
    "zip": "2243",
    "alias": []
  },
  {
    "city_geo_id": 1000060,
    "city": "Viersel",
    "city_full": "Viersel",
    "country_geo_id": 23,
    "area": "",
    "lat": 51.1875,
    "lng": 4.64887,
    "region1": "Région Flamande",
    "region2": "Antwerpen",
    "region3": "Antwerpen",
    "region4": "Zandhoven",
    "state_geo_id": 10000,
    "zip": "2240",
    "alias": []
  },
  {
    "city_geo_id": 1000061,
    "city": "Zandhoven",
    "city_full": "Zandhoven",
    "country_geo_id": 23,
    "area": "",
    "lat": 51.21517,
    "lng": 4.66043,
    "region1": "Région Flamande",
    "region2": "Antwerpen",
    "region3": "Antwerpen",
    "region4": "Zandhoven",
    "state_geo_id": 10000,
    "zip": "2240",
    "alias": []
  },
  {
    "city_geo_id": 1000062,
    "city": "Halle",
    "city_full": "Halle (2980)",
    "country_geo_id": 23,
    "area": "",
    "lat": 51.23981,
    "lng": 4.64651,
    "region1": "Région Flamande",
    "region2": "Antwerpen",
    "region3": "Antwerpen",
    "region4": "Zoersel",
    "state_geo_id": 10000,
    "zip": "2980",
    "alias": []
  },
  {
    "city_geo_id": 1000063,
    "city": "Zoersel",
    "city_full": "Zoersel",
    "country_geo_id": 23,
    "area": "",
    "lat": 51.26738,
    "lng": 4.71239,
    "region1": "Région Flamande",
    "region2": "Antwerpen",
    "region3": "Antwerpen",
    "region4": "Zoersel",
    "state_geo_id": 10000,
    "zip": "2980",
    "alias": []
  },
  {
    "city_geo_id": 1000064,
    "city": "Burcht",
    "city_full": "Burcht",
    "country_geo_id": 23,
    "area": "",
    "lat": 51.20177,
    "lng": 4.34552,
    "region1": "Région Flamande",
    "region2": "Oost-Vlaanderen",
    "region3": "Sint-Niklaas",
    "region4": "Beveren-Kruibeke-Zwijndrecht",
    "state_geo_id": 10002,
    "zip": "2070",
    "alias": []
  },
  {
    "city_geo_id": 1000065,
    "city": "Zwijndrecht",
    "city_full": "Zwijndrecht",
    "country_geo_id": 23,
    "area": "",
    "lat": 51.21915,
    "lng": 4.32645,
    "region1": "Région Flamande",
    "region2": "Oost-Vlaanderen",
    "region3": "Sint-Niklaas",
    "region4": "Beveren-Kruibeke-Zwijndrecht",
    "state_geo_id": 10002,
    "zip": "2070",
    "alias": []
  },
  {
    "city_geo_id": 1000066,
    "city": "Berlaar",
    "city_full": "Berlaar",
    "country_geo_id": 23,
    "area": "",
    "lat": 51.11841,
    "lng": 4.66,
    "region1": "Région Flamande",
    "region2": "Antwerpen",
    "region3": "Mechelen",
    "region4": "Berlaar",
    "state_geo_id": 10000,
    "zip": "2590",
    "alias": []
  },
  {
    "city_geo_id": 1000067,
    "city": "Gestel",
    "city_full": "Gestel",
    "country_geo_id": 23,
    "area": "",
    "lat": 51.12763,
    "lng": 4.67472,
    "region1": "Région Flamande",
    "region2": "Antwerpen",
    "region3": "Mechelen",
    "region4": "Berlaar",
    "state_geo_id": 10000,
    "zip": "2590",
    "alias": []
  },
  {
    "city_geo_id": 1000068,
    "city": "Bonheiden",
    "city_full": "Bonheiden",
    "country_geo_id": 23,
    "area": "",
    "lat": 51.02242,
    "lng": 4.5475,
    "region1": "Région Flamande",
    "region2": "Antwerpen",
    "region3": "Mechelen",
    "region4": "Bonheiden",
    "state_geo_id": 10000,
    "zip": "2820",
    "alias": []
  },
  {
    "city_geo_id": 1000069,
    "city": "Rijmenam",
    "city_full": "Rijmenam",
    "country_geo_id": 23,
    "area": "",
    "lat": 51.00113,
    "lng": 4.58444,
    "region1": "Région Flamande",
    "region2": "Antwerpen",
    "region3": "Mechelen",
    "region4": "Bonheiden",
    "state_geo_id": 10000,
    "zip": "2820",
    "alias": []
  },
  {
    "city_geo_id": 1000070,
    "city": "Bornem",
    "city_full": "Bornem",
    "country_geo_id": 23,
    "area": "",
    "lat": 51.09968,
    "lng": 4.23487,
    "region1": "Région Flamande",
    "region2": "Antwerpen",
    "region3": "Mechelen",
    "region4": "Bornem",
    "state_geo_id": 10000,
    "zip": "2880",
    "alias": []
  },
  {
    "city_geo_id": 1000071,
    "city": "Hingene",
    "city_full": "Hingene",
    "country_geo_id": 23,
    "area": "",
    "lat": 51.10328,
    "lng": 4.26881,
    "region1": "Région Flamande",
    "region2": "Antwerpen",
    "region3": "Mechelen",
    "region4": "Bornem",
    "state_geo_id": 10000,
    "zip": "2880",
    "alias": []
  },
  {
    "city_geo_id": 1000072,
    "city": "Mariekerke",
    "city_full": "Mariekerke",
    "country_geo_id": 23,
    "area": "",
    "lat": 51.06054,
    "lng": 4.18994,
    "region1": "Région Flamande",
    "region2": "Antwerpen",
    "region3": "Mechelen",
    "region4": "Bornem",
    "state_geo_id": 10000,
    "zip": "2880",
    "alias": []
  },
  {
    "city_geo_id": 1000073,
    "city": "Weert",
    "city_full": "Weert",
    "country_geo_id": 23,
    "area": "",
    "lat": 51.10182,
    "lng": 4.19312,
    "region1": "Région Flamande",
    "region2": "Antwerpen",
    "region3": "Mechelen",
    "region4": "Bornem",
    "state_geo_id": 10000,
    "zip": "2880",
    "alias": []
  },
  {
    "city_geo_id": 1000074,
    "city": "Duffel",
    "city_full": "Duffel",
    "country_geo_id": 23,
    "area": "",
    "lat": 51.09455,
    "lng": 4.49998,
    "region1": "Région Flamande",
    "region2": "Antwerpen",
    "region3": "Mechelen",
    "region4": "Duffel",
    "state_geo_id": 10000,
    "zip": "2570",
    "alias": []
  },
  {
    "city_geo_id": 1000075,
    "city": "Booischot",
    "city_full": "Booischot",
    "country_geo_id": 23,
    "area": "",
    "lat": 51.05308,
    "lng": 4.77924,
    "region1": "Région Flamande",
    "region2": "Antwerpen",
    "region3": "Mechelen",
    "region4": "Heist-op-den-Berg",
    "state_geo_id": 10000,
    "zip": "2221",
    "alias": []
  },
  {
    "city_geo_id": 1000076,
    "city": "Hallaar",
    "city_full": "Hallaar",
    "country_geo_id": 23,
    "area": "",
    "lat": 51.08418,
    "lng": 4.72913,
    "region1": "Région Flamande",
    "region2": "Antwerpen",
    "region3": "Mechelen",
    "region4": "Heist-op-den-Berg",
    "state_geo_id": 10000,
    "zip": "2220",
    "alias": []
  },
  {
    "city_geo_id": 1000077,
    "city": "Heist-op-den-Berg",
    "city_full": "Heist-op-den-Berg",
    "country_geo_id": 23,
    "area": "",
    "lat": 51.07582,
    "lng": 4.72901,
    "region1": "Région Flamande",
    "region2": "Antwerpen",
    "region3": "Mechelen",
    "region4": "Heist-op-den-Berg",
    "state_geo_id": 10000,
    "zip": "2220",
    "alias": []
  },
  {
    "city_geo_id": 1000078,
    "city": "Itegem",
    "city_full": "Itegem",
    "country_geo_id": 23,
    "area": "",
    "lat": 51.1029,
    "lng": 4.72995,
    "region1": "Région Flamande",
    "region2": "Antwerpen",
    "region3": "Mechelen",
    "region4": "Heist-op-den-Berg",
    "state_geo_id": 10000,
    "zip": "2222",
    "alias": []
  },
  {
    "city_geo_id": 1000079,
    "city": "Schriek",
    "city_full": "Schriek",
    "country_geo_id": 23,
    "area": "",
    "lat": 51.02792,
    "lng": 4.69319,
    "region1": "Région Flamande",
    "region2": "Antwerpen",
    "region3": "Mechelen",
    "region4": "Heist-op-den-Berg",
    "state_geo_id": 10000,
    "zip": "2223",
    "alias": []
  },
  {
    "city_geo_id": 1000080,
    "city": "Wiekevorst",
    "city_full": "Wiekevorst",
    "country_geo_id": 23,
    "area": "",
    "lat": 51.10899,
    "lng": 4.79483,
    "region1": "Région Flamande",
    "region2": "Antwerpen",
    "region3": "Mechelen",
    "region4": "Heist-op-den-Berg",
    "state_geo_id": 10000,
    "zip": "2222",
    "alias": []
  },
  {
    "city_geo_id": 1000081,
    "city": "Koningshooikt",
    "city_full": "Koningshooikt",
    "country_geo_id": 23,
    "area": "",
    "lat": 51.09491,
    "lng": 4.61046,
    "region1": "Région Flamande",
    "region2": "Antwerpen",
    "region3": "Mechelen",
    "region4": "Lier",
    "state_geo_id": 10000,
    "zip": "2500",
    "alias": []
  },
  {
    "city_geo_id": 1000082,
    "city": "Lier",
    "city_full": "Lier",
    "country_geo_id": 23,
    "area": "",
    "lat": 51.13017,
    "lng": 4.57361,
    "region1": "Région Flamande",
    "region2": "Antwerpen",
    "region3": "Mechelen",
    "region4": "Lier",
    "state_geo_id": 10000,
    "zip": "2500",
    "alias": []
  },
  {
    "city_geo_id": 1000083,
    "city": "Heffen",
    "city_full": "Heffen",
    "country_geo_id": 23,
    "area": "",
    "lat": 51.04666,
    "lng": 4.42117,
    "region1": "Région Flamande",
    "region2": "Antwerpen",
    "region3": "Mechelen",
    "region4": "Mechelen",
    "state_geo_id": 10000,
    "zip": "2801",
    "alias": []
  },
  {
    "city_geo_id": 1000084,
    "city": "Hombeek",
    "city_full": "Hombeek",
    "country_geo_id": 23,
    "area": "",
    "lat": 51.01528,
    "lng": 4.44214,
    "region1": "Région Flamande",
    "region2": "Antwerpen",
    "region3": "Mechelen",
    "region4": "Mechelen",
    "state_geo_id": 10000,
    "zip": "2811",
    "alias": []
  },
  {
    "city_geo_id": 1000085,
    "city": "Leest",
    "city_full": "Leest",
    "country_geo_id": 23,
    "area": "",
    "lat": 51.03368,
    "lng": 4.41957,
    "region1": "Région Flamande",
    "region2": "Antwerpen",
    "region3": "Mechelen",
    "region4": "Mechelen",
    "state_geo_id": 10000,
    "zip": "2811",
    "alias": []
  },
  {
    "city_geo_id": 1000086,
    "city": "Mechelen",
    "city_full": "Mechelen",
    "country_geo_id": 23,
    "area": "",
    "lat": 51.02892,
    "lng": 4.47807,
    "region1": "Région Flamande",
    "region2": "Antwerpen",
    "region3": "Mechelen",
    "region4": "Mechelen",
    "state_geo_id": 10000,
    "zip": "2800",
    "alias": []
  },
  {
    "city_geo_id": 1000087,
    "city": "Muizen",
    "city_full": "Muizen (2812)",
    "country_geo_id": 23,
    "area": "",
    "lat": 51.01054,
    "lng": 4.51477,
    "region1": "Région Flamande",
    "region2": "Antwerpen",
    "region3": "Mechelen",
    "region4": "Mechelen",
    "state_geo_id": 10000,
    "zip": "2812",
    "alias": []
  },
  {
    "city_geo_id": 1000088,
    "city": "Walem",
    "city_full": "Walem",
    "country_geo_id": 23,
    "area": "",
    "lat": 51.06599,
    "lng": 4.45686,
    "region1": "Région Flamande",
    "region2": "Antwerpen",
    "region3": "Mechelen",
    "region4": "Mechelen",
    "state_geo_id": 10000,
    "zip": "2800",
    "alias": []
  },
  {
    "city_geo_id": 1000089,
    "city": "Bevel",
    "city_full": "Bevel",
    "country_geo_id": 23,
    "area": "",
    "lat": 51.13738,
    "lng": 4.68142,
    "region1": "Région Flamande",
    "region2": "Antwerpen",
    "region3": "Mechelen",
    "region4": "Nijlen",
    "state_geo_id": 10000,
    "zip": "2560",
    "alias": []
  },
  {
    "city_geo_id": 1000090,
    "city": "Kessel",
    "city_full": "Kessel",
    "country_geo_id": 23,
    "area": "",
    "lat": 51.139,
    "lng": 4.62874,
    "region1": "Région Flamande",
    "region2": "Antwerpen",
    "region3": "Mechelen",
    "region4": "Nijlen",
    "state_geo_id": 10000,
    "zip": "2560",
    "alias": []
  },
  {
    "city_geo_id": 1000091,
    "city": "Nijlen",
    "city_full": "Nijlen",
    "country_geo_id": 23,
    "area": "",
    "lat": 51.16104,
    "lng": 4.67002,
    "region1": "Région Flamande",
    "region2": "Antwerpen",
    "region3": "Mechelen",
    "region4": "Nijlen",
    "state_geo_id": 10000,
    "zip": "2560",
    "alias": []
  },
  {
    "city_geo_id": 1000092,
    "city": "Beerzel",
    "city_full": "Beerzel",
    "country_geo_id": 23,
    "area": "",
    "lat": 51.05764,
    "lng": 4.67066,
    "region1": "Région Flamande",
    "region2": "Antwerpen",
    "region3": "Mechelen",
    "region4": "Putte",
    "state_geo_id": 10000,
    "zip": "2580",
    "alias": []
  },
  {
    "city_geo_id": 1000093,
    "city": "Putte",
    "city_full": "Putte",
    "country_geo_id": 23,
    "area": "",
    "lat": 51.05623,
    "lng": 4.62894,
    "region1": "Région Flamande",
    "region2": "Antwerpen",
    "region3": "Mechelen",
    "region4": "Putte",
    "state_geo_id": 10000,
    "zip": "2580",
    "alias": []
  },
  {
    "city_geo_id": 1000094,
    "city": "Breendonk",
    "city_full": "Breendonk",
    "country_geo_id": 23,
    "area": "",
    "lat": 51.0442,
    "lng": 4.32573,
    "region1": "Région Flamande",
    "region2": "Antwerpen",
    "region3": "Mechelen",
    "region4": "Puurs-Sint-Amands",
    "state_geo_id": 10000,
    "zip": "2870",
    "alias": []
  },
  {
    "city_geo_id": 1000095,
    "city": "Liezele",
    "city_full": "Liezele",
    "country_geo_id": 23,
    "area": "",
    "lat": 51.0602,
    "lng": 4.28006,
    "region1": "Région Flamande",
    "region2": "Antwerpen",
    "region3": "Mechelen",
    "region4": "Puurs-Sint-Amands",
    "state_geo_id": 10000,
    "zip": "2870",
    "alias": []
  },
  {
    "city_geo_id": 1000096,
    "city": "Puurs",
    "city_full": "Puurs",
    "country_geo_id": 23,
    "area": "",
    "lat": 51.07651,
    "lng": 4.27559,
    "region1": "Région Flamande",
    "region2": "Antwerpen",
    "region3": "Mechelen",
    "region4": "Puurs-Sint-Amands",
    "state_geo_id": 10000,
    "zip": "2870",
    "alias": []
  },
  {
    "city_geo_id": 1000097,
    "city": "Ruisbroek",
    "city_full": "Ruisbroek (2870)",
    "country_geo_id": 23,
    "area": "",
    "lat": 51.08972,
    "lng": 4.33151,
    "region1": "Région Flamande",
    "region2": "Antwerpen",
    "region3": "Mechelen",
    "region4": "Puurs-Sint-Amands",
    "state_geo_id": 10000,
    "zip": "2870",
    "alias": []
  },
  {
    "city_geo_id": 1000098,
    "city": "Lippelo",
    "city_full": "Lippelo",
    "country_geo_id": 23,
    "area": "",
    "lat": 51.04327,
    "lng": 4.26189,
    "region1": "Région Flamande",
    "region2": "Antwerpen",
    "region3": "Mechelen",
    "region4": "Puurs-Sint-Amands",
    "state_geo_id": 10000,
    "zip": "2890",
    "alias": []
  },
  {
    "city_geo_id": 1000099,
    "city": "Oppuurs",
    "city_full": "Oppuurs",
    "country_geo_id": 23,
    "area": "",
    "lat": 51.06635,
    "lng": 4.24417,
    "region1": "Région Flamande",
    "region2": "Antwerpen",
    "region3": "Mechelen",
    "region4": "Puurs-Sint-Amands",
    "state_geo_id": 10000,
    "zip": "2890",
    "alias": []
  },
  {
    "city_geo_id": 1000100,
    "city": "Sint-Amands",
    "city_full": "Sint-Amands",
    "country_geo_id": 23,
    "area": "",
    "lat": 51.05451,
    "lng": 4.20398,
    "region1": "Région Flamande",
    "region2": "Antwerpen",
    "region3": "Mechelen",
    "region4": "Puurs-Sint-Amands",
    "state_geo_id": 10000,
    "zip": "2890",
    "alias": []
  },
  {
    "city_geo_id": 1000101,
    "city": "Onze-Lieve-Vrouw-Waver",
    "city_full": "Onze-Lieve-Vrouw-Waver",
    "country_geo_id": 23,
    "area": "",
    "lat": 51.06264,
    "lng": 4.57946,
    "region1": "Région Flamande",
    "region2": "Antwerpen",
    "region3": "Mechelen",
    "region4": "Sint-Katelijne-Waver",
    "state_geo_id": 10000,
    "zip": "2861",
    "alias": []
  },
  {
    "city_geo_id": 1000102,
    "city": "Sint-Katelijne-Waver",
    "city_full": "Sint-Katelijne-Waver",
    "country_geo_id": 23,
    "area": "",
    "lat": 51.07034,
    "lng": 4.53135,
    "region1": "Région Flamande",
    "region2": "Antwerpen",
    "region3": "Mechelen",
    "region4": "Sint-Katelijne-Waver",
    "state_geo_id": 10000,
    "zip": "2860",
    "alias": []
  },
  {
    "city_geo_id": 1000103,
    "city": "Blaasveld",
    "city_full": "Blaasveld",
    "country_geo_id": 23,
    "area": "",
    "lat": 51.05668,
    "lng": 4.37146,
    "region1": "Région Flamande",
    "region2": "Antwerpen",
    "region3": "Mechelen",
    "region4": "Willebroek",
    "state_geo_id": 10000,
    "zip": "2830",
    "alias": []
  },
  {
    "city_geo_id": 1000104,
    "city": "Heindonk",
    "city_full": "Heindonk",
    "country_geo_id": 23,
    "area": "",
    "lat": 51.06666,
    "lng": 4.40673,
    "region1": "Région Flamande",
    "region2": "Antwerpen",
    "region3": "Mechelen",
    "region4": "Willebroek",
    "state_geo_id": 10000,
    "zip": "2830",
    "alias": []
  },
  {
    "city_geo_id": 1000105,
    "city": "Tisselt",
    "city_full": "Tisselt",
    "country_geo_id": 23,
    "area": "",
    "lat": 51.034,
    "lng": 4.3588,
    "region1": "Région Flamande",
    "region2": "Antwerpen",
    "region3": "Mechelen",
    "region4": "Willebroek",
    "state_geo_id": 10000,
    "zip": "2830",
    "alias": []
  },
  {
    "city_geo_id": 1000106,
    "city": "Willebroek",
    "city_full": "Willebroek",
    "country_geo_id": 23,
    "area": "",
    "lat": 51.06073,
    "lng": 4.36041,
    "region1": "Région Flamande",
    "region2": "Antwerpen",
    "region3": "Mechelen",
    "region4": "Willebroek",
    "state_geo_id": 10000,
    "zip": "2830",
    "alias": []
  },
  {
    "city_geo_id": 1000107,
    "city": "Arendonk",
    "city_full": "Arendonk",
    "country_geo_id": 23,
    "area": "",
    "lat": 51.32021,
    "lng": 5.08506,
    "region1": "Région Flamande",
    "region2": "Antwerpen",
    "region3": "Turnhout",
    "region4": "Arendonk",
    "state_geo_id": 10000,
    "zip": "2370",
    "alias": []
  },
  {
    "city_geo_id": 1000108,
    "city": "Baarle-Hertog",
    "city_full": "Baarle-Hertog",
    "country_geo_id": 23,
    "area": "",
    "lat": 51.44229,
    "lng": 4.93059,
    "region1": "Région Flamande",
    "region2": "Antwerpen",
    "region3": "Turnhout",
    "region4": "Baarle-Hertog",
    "state_geo_id": 10000,
    "zip": "2387",
    "alias": []
  },
  {
    "city_geo_id": 1000109,
    "city": "Balen",
    "city_full": "Balen",
    "country_geo_id": 23,
    "area": "",
    "lat": 51.17156,
    "lng": 5.16849,
    "region1": "Région Flamande",
    "region2": "Antwerpen",
    "region3": "Turnhout",
    "region4": "Balen",
    "state_geo_id": 10000,
    "zip": "2490",
    "alias": []
  },
  {
    "city_geo_id": 1000110,
    "city": "Olmen",
    "city_full": "Olmen",
    "country_geo_id": 23,
    "area": "",
    "lat": 51.14196,
    "lng": 5.14856,
    "region1": "Région Flamande",
    "region2": "Antwerpen",
    "region3": "Turnhout",
    "region4": "Balen",
    "state_geo_id": 10000,
    "zip": "2491",
    "alias": []
  },
  {
    "city_geo_id": 1000111,
    "city": "Beerse",
    "city_full": "Beerse",
    "country_geo_id": 23,
    "area": "",
    "lat": 51.31981,
    "lng": 4.85645,
    "region1": "Région Flamande",
    "region2": "Antwerpen",
    "region3": "Turnhout",
    "region4": "Beerse",
    "state_geo_id": 10000,
    "zip": "2340",
    "alias": []
  },
  {
    "city_geo_id": 1000112,
    "city": "Vlimmeren",
    "city_full": "Vlimmeren",
    "country_geo_id": 23,
    "area": "",
    "lat": 51.29533,
    "lng": 4.78109,
    "region1": "Région Flamande",
    "region2": "Antwerpen",
    "region3": "Turnhout",
    "region4": "Beerse",
    "state_geo_id": 10000,
    "zip": "2340",
    "alias": []
  },
  {
    "city_geo_id": 1000113,
    "city": "Dessel",
    "city_full": "Dessel",
    "country_geo_id": 23,
    "area": "",
    "lat": 51.23986,
    "lng": 5.11271,
    "region1": "Région Flamande",
    "region2": "Antwerpen",
    "region3": "Turnhout",
    "region4": "Dessel",
    "state_geo_id": 10000,
    "zip": "2480",
    "alias": []
  },
  {
    "city_geo_id": 1000114,
    "city": "Geel",
    "city_full": "Geel",
    "country_geo_id": 23,
    "area": "",
    "lat": 51.16233,
    "lng": 4.99085,
    "region1": "Région Flamande",
    "region2": "Antwerpen",
    "region3": "Turnhout",
    "region4": "Geel",
    "state_geo_id": 10000,
    "zip": "2440",
    "alias": []
  },
  {
    "city_geo_id": 1000115,
    "city": "Bouwel",
    "city_full": "Bouwel",
    "country_geo_id": 23,
    "area": "",
    "lat": 51.16993,
    "lng": 4.74339,
    "region1": "Région Flamande",
    "region2": "Antwerpen",
    "region3": "Turnhout",
    "region4": "Grobbendonk",
    "state_geo_id": 10000,
    "zip": "2288",
    "alias": []
  },
  {
    "city_geo_id": 1000116,
    "city": "Grobbendonk",
    "city_full": "Grobbendonk",
    "country_geo_id": 23,
    "area": "",
    "lat": 51.1908,
    "lng": 4.73858,
    "region1": "Région Flamande",
    "region2": "Antwerpen",
    "region3": "Turnhout",
    "region4": "Grobbendonk",
    "state_geo_id": 10000,
    "zip": "2280",
    "alias": []
  },
  {
    "city_geo_id": 1000117,
    "city": "Herentals",
    "city_full": "Herentals",
    "country_geo_id": 23,
    "area": "",
    "lat": 51.17791,
    "lng": 4.83583,
    "region1": "Région Flamande",
    "region2": "Antwerpen",
    "region3": "Turnhout",
    "region4": "Herentals",
    "state_geo_id": 10000,
    "zip": "2200",
    "alias": []
  },
  {
    "city_geo_id": 1000118,
    "city": "Morkhoven",
    "city_full": "Morkhoven",
    "country_geo_id": 23,
    "area": "",
    "lat": 51.11908,
    "lng": 4.82149,
    "region1": "Région Flamande",
    "region2": "Antwerpen",
    "region3": "Turnhout",
    "region4": "Herentals",
    "state_geo_id": 10000,
    "zip": "2200",
    "alias": []
  },
  {
    "city_geo_id": 1000119,
    "city": "Noorderwijk",
    "city_full": "Noorderwijk",
    "country_geo_id": 23,
    "area": "",
    "lat": 51.14065,
    "lng": 4.83978,
    "region1": "Région Flamande",
    "region2": "Antwerpen",
    "region3": "Turnhout",
    "region4": "Herentals",
    "state_geo_id": 10000,
    "zip": "2200",
    "alias": []
  },
  {
    "city_geo_id": 1000120,
    "city": "Herenthout",
    "city_full": "Herenthout",
    "country_geo_id": 23,
    "area": "",
    "lat": 51.13979,
    "lng": 4.75522,
    "region1": "Région Flamande",
    "region2": "Antwerpen",
    "region3": "Turnhout",
    "region4": "Herenthout",
    "state_geo_id": 10000,
    "zip": "2270",
    "alias": []
  },
  {
    "city_geo_id": 1000121,
    "city": "Herselt",
    "city_full": "Herselt",
    "country_geo_id": 23,
    "area": "",
    "lat": 51.05288,
    "lng": 4.8808,
    "region1": "Région Flamande",
    "region2": "Antwerpen",
    "region3": "Turnhout",
    "region4": "Herselt",
    "state_geo_id": 10000,
    "zip": "2230",
    "alias": []
  },
  {
    "city_geo_id": 1000122,
    "city": "Ramsel",
    "city_full": "Ramsel",
    "country_geo_id": 23,
    "area": "",
    "lat": 51.03237,
    "lng": 4.83268,
    "region1": "Région Flamande",
    "region2": "Antwerpen",
    "region3": "Turnhout",
    "region4": "Herselt",
    "state_geo_id": 10000,
    "zip": "2230",
    "alias": []
  },
  {
    "city_geo_id": 1000123,
    "city": "Hoogstraten",
    "city_full": "Hoogstraten",
    "country_geo_id": 23,
    "area": "",
    "lat": 51.40105,
    "lng": 4.76132,
    "region1": "Région Flamande",
    "region2": "Antwerpen",
    "region3": "Turnhout",
    "region4": "Hoogstraten",
    "state_geo_id": 10000,
    "zip": "2320",
    "alias": []
  },
  {
    "city_geo_id": 1000124,
    "city": "Meer",
    "city_full": "Meer",
    "country_geo_id": 23,
    "area": "",
    "lat": 51.44277,
    "lng": 4.73575,
    "region1": "Région Flamande",
    "region2": "Antwerpen",
    "region3": "Turnhout",
    "region4": "Hoogstraten",
    "state_geo_id": 10000,
    "zip": "2321",
    "alias": []
  },
  {
    "city_geo_id": 1000125,
    "city": "Meerle",
    "city_full": "Meerle",
    "country_geo_id": 23,
    "area": "",
    "lat": 51.47408,
    "lng": 4.80353,
    "region1": "Région Flamande",
    "region2": "Antwerpen",
    "region3": "Turnhout",
    "region4": "Hoogstraten",
    "state_geo_id": 10000,
    "zip": "2328",
    "alias": []
  },
  {
    "city_geo_id": 1000126,
    "city": "Minderhout",
    "city_full": "Minderhout",
    "country_geo_id": 23,
    "area": "",
    "lat": 51.41732,
    "lng": 4.76337,
    "region1": "Région Flamande",
    "region2": "Antwerpen",
    "region3": "Turnhout",
    "region4": "Hoogstraten",
    "state_geo_id": 10000,
    "zip": "2322",
    "alias": []
  },
  {
    "city_geo_id": 1000127,
    "city": "Wortel",
    "city_full": "Wortel",
    "country_geo_id": 23,
    "area": "",
    "lat": 51.39823,
    "lng": 4.79286,
    "region1": "Région Flamande",
    "region2": "Antwerpen",
    "region3": "Turnhout",
    "region4": "Hoogstraten",
    "state_geo_id": 10000,
    "zip": "2323",
    "alias": []
  },
  {
    "city_geo_id": 1000128,
    "city": "Houtvenne",
    "city_full": "Houtvenne",
    "country_geo_id": 23,
    "area": "",
    "lat": 51.04159,
    "lng": 4.80856,
    "region1": "Région Flamande",
    "region2": "Antwerpen",
    "region3": "Turnhout",
    "region4": "Hulshout",
    "state_geo_id": 10000,
    "zip": "2235",
    "alias": []
  },
  {
    "city_geo_id": 1000129,
    "city": "Hulshout",
    "city_full": "Hulshout",
    "country_geo_id": 23,
    "area": "",
    "lat": 51.07476,
    "lng": 4.79103,
    "region1": "Région Flamande",
    "region2": "Antwerpen",
    "region3": "Turnhout",
    "region4": "Hulshout",
    "state_geo_id": 10000,
    "zip": "2235",
    "alias": []
  },
  {
    "city_geo_id": 1000130,
    "city": "Westmeerbeek",
    "city_full": "Westmeerbeek",
    "country_geo_id": 23,
    "area": "",
    "lat": 51.06132,
    "lng": 4.83472,
    "region1": "Région Flamande",
    "region2": "Antwerpen",
    "region3": "Turnhout",
    "region4": "Hulshout",
    "state_geo_id": 10000,
    "zip": "2235",
    "alias": []
  },
  {
    "city_geo_id": 1000131,
    "city": "Kasterlee",
    "city_full": "Kasterlee",
    "country_geo_id": 23,
    "area": "",
    "lat": 51.24084,
    "lng": 4.96636,
    "region1": "Région Flamande",
    "region2": "Antwerpen",
    "region3": "Turnhout",
    "region4": "Kasterlee",
    "state_geo_id": 10000,
    "zip": "2460",
    "alias": []
  },
  {
    "city_geo_id": 1000132,
    "city": "Lichtaart",
    "city_full": "Lichtaart",
    "country_geo_id": 23,
    "area": "",
    "lat": 51.22459,
    "lng": 4.92008,
    "region1": "Région Flamande",
    "region2": "Antwerpen",
    "region3": "Turnhout",
    "region4": "Kasterlee",
    "state_geo_id": 10000,
    "zip": "2460",
    "alias": []
  },
  {
    "city_geo_id": 1000133,
    "city": "Tielen",
    "city_full": "Tielen",
    "country_geo_id": 23,
    "area": "",
    "lat": 51.24195,
    "lng": 4.89693,
    "region1": "Région Flamande",
    "region2": "Antwerpen",
    "region3": "Turnhout",
    "region4": "Kasterlee",
    "state_geo_id": 10000,
    "zip": "2460",
    "alias": []
  },
  {
    "city_geo_id": 1000134,
    "city": "Eindhout",
    "city_full": "Eindhout",
    "country_geo_id": 23,
    "area": "",
    "lat": 51.1053,
    "lng": 5.00347,
    "region1": "Région Flamande",
    "region2": "Antwerpen",
    "region3": "Turnhout",
    "region4": "Laakdal",
    "state_geo_id": 10000,
    "zip": "2430",
    "alias": []
  },
  {
    "city_geo_id": 1000135,
    "city": "Laakdal",
    "city_full": "Laakdal",
    "country_geo_id": 23,
    "area": "",
    "lat": 51.07566,
    "lng": 5.01499,
    "region1": "Région Flamande",
    "region2": "Antwerpen",
    "region3": "Turnhout",
    "region4": "Laakdal",
    "state_geo_id": 10000,
    "zip": "2430",
    "alias": []
  },
  {
    "city_geo_id": 1000136,
    "city": "Varendonk",
    "city_full": "Varendonk",
    "country_geo_id": 23,
    "area": "",
    "lat": 51.08255,
    "lng": 4.95224,
    "region1": "Région Flamande",
    "region2": "Antwerpen",
    "region3": "Turnhout",
    "region4": "Laakdal",
    "state_geo_id": 10000,
    "zip": "2431",
    "alias": []
  },
  {
    "city_geo_id": 1000137,
    "city": "Veerle",
    "city_full": "Veerle",
    "country_geo_id": 23,
    "area": "",
    "lat": 51.07005,
    "lng": 4.9869,
    "region1": "Région Flamande",
    "region2": "Antwerpen",
    "region3": "Turnhout",
    "region4": "Laakdal",
    "state_geo_id": 10000,
    "zip": "2431",
    "alias": []
  },
  {
    "city_geo_id": 1000138,
    "city": "Vorst",
    "city_full": "Vorst",
    "country_geo_id": 23,
    "area": "",
    "lat": 51.08206,
    "lng": 5.03233,
    "region1": "Région Flamande",
    "region2": "Antwerpen",
    "region3": "Turnhout",
    "region4": "Laakdal",
    "state_geo_id": 10000,
    "zip": "2430",
    "alias": []
  },
  {
    "city_geo_id": 1000139,
    "city": "Gierle",
    "city_full": "Gierle",
    "country_geo_id": 23,
    "area": "",
    "lat": 51.26687,
    "lng": 4.86756,
    "region1": "Région Flamande",
    "region2": "Antwerpen",
    "region3": "Turnhout",
    "region4": "Lille",
    "state_geo_id": 10000,
    "zip": "2275",
    "alias": []
  },
  {
    "city_geo_id": 1000140,
    "city": "Lille",
    "city_full": "Lille",
    "country_geo_id": 23,
    "area": "",
    "lat": 51.23851,
    "lng": 4.8243,
    "region1": "Région Flamande",
    "region2": "Antwerpen",
    "region3": "Turnhout",
    "region4": "Lille",
    "state_geo_id": 10000,
    "zip": "2275",
    "alias": []
  },
  {
    "city_geo_id": 1000141,
    "city": "Poederlee",
    "city_full": "Poederlee",
    "country_geo_id": 23,
    "area": "",
    "lat": 51.22627,
    "lng": 4.83532,
    "region1": "Région Flamande",
    "region2": "Antwerpen",
    "region3": "Turnhout",
    "region4": "Lille",
    "state_geo_id": 10000,
    "zip": "2275",
    "alias": []
  },
  {
    "city_geo_id": 1000142,
    "city": "Wechelderzande",
    "city_full": "Wechelderzande",
    "country_geo_id": 23,
    "area": "",
    "lat": 51.26319,
    "lng": 4.7866,
    "region1": "Région Flamande",
    "region2": "Antwerpen",
    "region3": "Turnhout",
    "region4": "Lille",
    "state_geo_id": 10000,
    "zip": "2275",
    "alias": []
  },
  {
    "city_geo_id": 1000143,
    "city": "Meerhout",
    "city_full": "Meerhout",
    "country_geo_id": 23,
    "area": "",
    "lat": 51.13161,
    "lng": 5.07853,
    "region1": "Région Flamande",
    "region2": "Antwerpen",
    "region3": "Turnhout",
    "region4": "Meerhout",
    "state_geo_id": 10000,
    "zip": "2450",
    "alias": []
  },
  {
    "city_geo_id": 1000144,
    "city": "Merksplas",
    "city_full": "Merksplas",
    "country_geo_id": 23,
    "area": "",
    "lat": 51.35841,
    "lng": 4.8634,
    "region1": "Région Flamande",
    "region2": "Antwerpen",
    "region3": "Turnhout",
    "region4": "Merksplas",
    "state_geo_id": 10000,
    "zip": "2330",
    "alias": []
  },
  {
    "city_geo_id": 1000145,
    "city": "Mol",
    "city_full": "Mol",
    "country_geo_id": 23,
    "area": "",
    "lat": 51.18424,
    "lng": 5.11531,
    "region1": "Région Flamande",
    "region2": "Antwerpen",
    "region3": "Turnhout",
    "region4": "Mol",
    "state_geo_id": 10000,
    "zip": "2400",
    "alias": []
  },
  {
    "city_geo_id": 1000146,
    "city": "Olen",
    "city_full": "Olen",
    "country_geo_id": 23,
    "area": "",
    "lat": 51.14424,
    "lng": 4.85997,
    "region1": "Région Flamande",
    "region2": "Antwerpen",
    "region3": "Turnhout",
    "region4": "Olen",
    "state_geo_id": 10000,
    "zip": "2250",
    "alias": []
  },
  {
    "city_geo_id": 1000147,
    "city": "Oud-Turnhout",
    "city_full": "Oud-Turnhout",
    "country_geo_id": 23,
    "area": "",
    "lat": 51.32241,
    "lng": 4.98451,
    "region1": "Région Flamande",
    "region2": "Antwerpen",
    "region3": "Turnhout",
    "region4": "Oud-Turnhout",
    "state_geo_id": 10000,
    "zip": "2360",
    "alias": []
  },
  {
    "city_geo_id": 1000148,
    "city": "Poppel",
    "city_full": "Poppel",
    "country_geo_id": 23,
    "area": "",
    "lat": 51.44625,
    "lng": 5.03961,
    "region1": "Région Flamande",
    "region2": "Antwerpen",
    "region3": "Turnhout",
    "region4": "Ravels",
    "state_geo_id": 10000,
    "zip": "2382",
    "alias": []
  },
  {
    "city_geo_id": 1000149,
    "city": "Ravels",
    "city_full": "Ravels",
    "country_geo_id": 23,
    "area": "",
    "lat": 51.37162,
    "lng": 4.99437,
    "region1": "Région Flamande",
    "region2": "Antwerpen",
    "region3": "Turnhout",
    "region4": "Ravels",
    "state_geo_id": 10000,
    "zip": "2380",
    "alias": []
  },
  {
    "city_geo_id": 1000150,
    "city": "Weelde",
    "city_full": "Weelde",
    "country_geo_id": 23,
    "area": "",
    "lat": 51.40824,
    "lng": 4.99428,
    "region1": "Région Flamande",
    "region2": "Antwerpen",
    "region3": "Turnhout",
    "region4": "Ravels",
    "state_geo_id": 10000,
    "zip": "2381",
    "alias": []
  },
  {
    "city_geo_id": 1000151,
    "city": "Retie",
    "city_full": "Retie",
    "country_geo_id": 23,
    "area": "",
    "lat": 51.26734,
    "lng": 5.08427,
    "region1": "Région Flamande",
    "region2": "Antwerpen",
    "region3": "Turnhout",
    "region4": "Retie",
    "state_geo_id": 10000,
    "zip": "2470",
    "alias": []
  },
  {
    "city_geo_id": 1000152,
    "city": "Rijkevorsel",
    "city_full": "Rijkevorsel",
    "country_geo_id": 23,
    "area": "",
    "lat": 51.34935,
    "lng": 4.7604,
    "region1": "Région Flamande",
    "region2": "Antwerpen",
    "region3": "Turnhout",
    "region4": "Rijkevorsel",
    "state_geo_id": 10000,
    "zip": "2310",
    "alias": []
  },
  {
    "city_geo_id": 1000153,
    "city": "Turnhout",
    "city_full": "Turnhout",
    "country_geo_id": 23,
    "area": "",
    "lat": 51.32238,
    "lng": 4.94972,
    "region1": "Région Flamande",
    "region2": "Antwerpen",
    "region3": "Turnhout",
    "region4": "Turnhout",
    "state_geo_id": 10000,
    "zip": "2300",
    "alias": []
  },
  {
    "city_geo_id": 1000154,
    "city": "Vorselaar",
    "city_full": "Vorselaar",
    "country_geo_id": 23,
    "area": "",
    "lat": 51.20236,
    "lng": 4.77077,
    "region1": "Région Flamande",
    "region2": "Antwerpen",
    "region3": "Turnhout",
    "region4": "Vorselaar",
    "state_geo_id": 10000,
    "zip": "2290",
    "alias": []
  },
  {
    "city_geo_id": 1000155,
    "city": "Vosselaar",
    "city_full": "Vosselaar",
    "country_geo_id": 23,
    "area": "",
    "lat": 51.30817,
    "lng": 4.89175,
    "region1": "Région Flamande",
    "region2": "Antwerpen",
    "region3": "Turnhout",
    "region4": "Vosselaar",
    "state_geo_id": 10000,
    "zip": "2350",
    "alias": []
  },
  {
    "city_geo_id": 1000156,
    "city": "Oevel",
    "city_full": "Oevel",
    "country_geo_id": 23,
    "area": "",
    "lat": 51.13862,
    "lng": 4.90364,
    "region1": "Région Flamande",
    "region2": "Antwerpen",
    "region3": "Turnhout",
    "region4": "Westerlo",
    "state_geo_id": 10000,
    "zip": "2260",
    "alias": []
  },
  {
    "city_geo_id": 1000157,
    "city": "Tongerlo",
    "city_full": "Tongerlo (2260)",
    "country_geo_id": 23,
    "area": "",
    "lat": 51.10623,
    "lng": 4.91553,
    "region1": "Région Flamande",
    "region2": "Antwerpen",
    "region3": "Turnhout",
    "region4": "Westerlo",
    "state_geo_id": 10000,
    "zip": "2260",
    "alias": []
  },
  {
    "city_geo_id": 1000158,
    "city": "Westerlo",
    "city_full": "Westerlo",
    "country_geo_id": 23,
    "area": "",
    "lat": 51.08728,
    "lng": 4.91777,
    "region1": "Région Flamande",
    "region2": "Antwerpen",
    "region3": "Turnhout",
    "region4": "Westerlo",
    "state_geo_id": 10000,
    "zip": "2260",
    "alias": []
  },
  {
    "city_geo_id": 1000159,
    "city": "Zoerle-Parwijs",
    "city_full": "Zoerle-Parwijs",
    "country_geo_id": 23,
    "area": "",
    "lat": 51.08788,
    "lng": 4.87219,
    "region1": "Région Flamande",
    "region2": "Antwerpen",
    "region3": "Turnhout",
    "region4": "Westerlo",
    "state_geo_id": 10000,
    "zip": "2260",
    "alias": []
  },
  {
    "city_geo_id": 1000160,
    "city": "As",
    "city_full": "As",
    "country_geo_id": 23,
    "area": "",
    "lat": 51.00654,
    "lng": 5.58386,
    "region1": "Région Flamande",
    "region2": "Limburg",
    "region3": "Hasselt",
    "region4": "As",
    "state_geo_id": 10001,
    "zip": "3665",
    "alias": []
  },
  {
    "city_geo_id": 1000161,
    "city": "Niel-bij-As",
    "city_full": "Niel-bij-As",
    "country_geo_id": 23,
    "area": "",
    "lat": 51.01533,
    "lng": 5.60101,
    "region1": "Région Flamande",
    "region2": "Limburg",
    "region3": "Hasselt",
    "region4": "As",
    "state_geo_id": 10001,
    "zip": "3668",
    "alias": []
  },
  {
    "city_geo_id": 1000162,
    "city": "Beringen",
    "city_full": "Beringen",
    "country_geo_id": 23,
    "area": "",
    "lat": 51.04829,
    "lng": 5.2242,
    "region1": "Région Flamande",
    "region2": "Limburg",
    "region3": "Hasselt",
    "region4": "Beringen",
    "state_geo_id": 10001,
    "zip": "3580",
    "alias": []
  },
  {
    "city_geo_id": 1000163,
    "city": "Beverlo",
    "city_full": "Beverlo",
    "country_geo_id": 23,
    "area": "",
    "lat": 51.08731,
    "lng": 5.21953,
    "region1": "Région Flamande",
    "region2": "Limburg",
    "region3": "Hasselt",
    "region4": "Beringen",
    "state_geo_id": 10001,
    "zip": "3581",
    "alias": []
  },
  {
    "city_geo_id": 1000164,
    "city": "Koersel",
    "city_full": "Koersel",
    "country_geo_id": 23,
    "area": "",
    "lat": 51.05866,
    "lng": 5.27249,
    "region1": "Région Flamande",
    "region2": "Limburg",
    "region3": "Hasselt",
    "region4": "Beringen",
    "state_geo_id": 10001,
    "zip": "3582",
    "alias": []
  },
  {
    "city_geo_id": 1000165,
    "city": "Paal",
    "city_full": "Paal",
    "country_geo_id": 23,
    "area": "",
    "lat": 51.03905,
    "lng": 5.17285,
    "region1": "Région Flamande",
    "region2": "Limburg",
    "region3": "Hasselt",
    "region4": "Beringen",
    "state_geo_id": 10001,
    "zip": "3583",
    "alias": []
  },
  {
    "city_geo_id": 1000166,
    "city": "Diepenbeek",
    "city_full": "Diepenbeek",
    "country_geo_id": 23,
    "area": "",
    "lat": 50.90782,
    "lng": 5.41955,
    "region1": "Région Flamande",
    "region2": "Limburg",
    "region3": "Hasselt",
    "region4": "Diepenbeek",
    "state_geo_id": 10001,
    "zip": "3590",
    "alias": []
  },
  {
    "city_geo_id": 1000167,
    "city": "Genk",
    "city_full": "Genk",
    "country_geo_id": 23,
    "area": "",
    "lat": 50.96357,
    "lng": 5.50003,
    "region1": "Région Flamande",
    "region2": "Limburg",
    "region3": "Hasselt",
    "region4": "Genk",
    "state_geo_id": 10001,
    "zip": "3600",
    "alias": []
  },
  {
    "city_geo_id": 1000168,
    "city": "Boekhout",
    "city_full": "Boekhout",
    "country_geo_id": 23,
    "area": "",
    "lat": 50.74571,
    "lng": 5.23335,
    "region1": "Région Flamande",
    "region2": "Limburg",
    "region3": "Hasselt",
    "region4": "Gingelom",
    "state_geo_id": 10001,
    "zip": "3890",
    "alias": []
  },
  {
    "city_geo_id": 1000169,
    "city": "Borlo",
    "city_full": "Borlo",
    "country_geo_id": 23,
    "area": "",
    "lat": 50.7422,
    "lng": 5.18125,
    "region1": "Région Flamande",
    "region2": "Limburg",
    "region3": "Hasselt",
    "region4": "Gingelom",
    "state_geo_id": 10001,
    "zip": "3891",
    "alias": []
  },
  {
    "city_geo_id": 1000170,
    "city": "Buvingen",
    "city_full": "Buvingen",
    "country_geo_id": 23,
    "area": "",
    "lat": 50.75264,
    "lng": 5.17585,
    "region1": "Région Flamande",
    "region2": "Limburg",
    "region3": "Hasselt",
    "region4": "Gingelom",
    "state_geo_id": 10001,
    "zip": "3891",
    "alias": []
  },
  {
    "city_geo_id": 1000171,
    "city": "Gingelom",
    "city_full": "Gingelom",
    "country_geo_id": 23,
    "area": "",
    "lat": 50.75004,
    "lng": 5.13522,
    "region1": "Région Flamande",
    "region2": "Limburg",
    "region3": "Hasselt",
    "region4": "Gingelom",
    "state_geo_id": 10001,
    "zip": "3890",
    "alias": []
  },
  {
    "city_geo_id": 1000172,
    "city": "Jeuk",
    "city_full": "Jeuk",
    "country_geo_id": 23,
    "area": "",
    "lat": 50.73424,
    "lng": 5.20973,
    "region1": "Région Flamande",
    "region2": "Limburg",
    "region3": "Hasselt",
    "region4": "Gingelom",
    "state_geo_id": 10001,
    "zip": "3890",
    "alias": []
  },
  {
    "city_geo_id": 1000173,
    "city": "Kortijs",
    "city_full": "Kortijs",
    "country_geo_id": 23,
    "area": "",
    "lat": 50.70698,
    "lng": 5.15039,
    "region1": "Région Flamande",
    "region2": "Limburg",
    "region3": "Hasselt",
    "region4": "Gingelom",
    "state_geo_id": 10001,
    "zip": "3890",
    "alias": []
  },
  {
    "city_geo_id": 1000174,
    "city": "Mielen-Boven-Aalst",
    "city_full": "Mielen-Boven-Aalst",
    "country_geo_id": 23,
    "area": "",
    "lat": 50.75578,
    "lng": 5.21487,
    "region1": "Région Flamande",
    "region2": "Limburg",
    "region3": "Hasselt",
    "region4": "Gingelom",
    "state_geo_id": 10001,
    "zip": "3891",
    "alias": []
  },
  {
    "city_geo_id": 1000175,
    "city": "Montenaken",
    "city_full": "Montenaken",
    "country_geo_id": 23,
    "area": "",
    "lat": 50.72222,
    "lng": 5.13441,
    "region1": "Région Flamande",
    "region2": "Limburg",
    "region3": "Hasselt",
    "region4": "Gingelom",
    "state_geo_id": 10001,
    "zip": "3890",
    "alias": []
  },
  {
    "city_geo_id": 1000176,
    "city": "Muizen",
    "city_full": "Muizen (3891)",
    "country_geo_id": 23,
    "area": "",
    "lat": 50.75982,
    "lng": 5.17711,
    "region1": "Région Flamande",
    "region2": "Limburg",
    "region3": "Hasselt",
    "region4": "Gingelom",
    "state_geo_id": 10001,
    "zip": "3891",
    "alias": []
  },
  {
    "city_geo_id": 1000177,
    "city": "Niel-bij-Sint-Truiden",
    "city_full": "Niel-bij-Sint-Truiden",
    "country_geo_id": 23,
    "area": "",
    "lat": 50.74118,
    "lng": 5.1399,
    "region1": "Région Flamande",
    "region2": "Limburg",
    "region3": "Hasselt",
    "region4": "Gingelom",
    "state_geo_id": 10001,
    "zip": "3890",
    "alias": []
  },
  {
    "city_geo_id": 1000178,
    "city": "Vorsen",
    "city_full": "Vorsen",
    "country_geo_id": 23,
    "area": "",
    "lat": 50.70384,
    "lng": 5.17144,
    "region1": "Région Flamande",
    "region2": "Limburg",
    "region3": "Hasselt",
    "region4": "Gingelom",
    "state_geo_id": 10001,
    "zip": "3890",
    "alias": []
  },
  {
    "city_geo_id": 1000179,
    "city": "Halen",
    "city_full": "Halen",
    "country_geo_id": 23,
    "area": "",
    "lat": 50.94819,
    "lng": 5.11456,
    "region1": "Région Flamande",
    "region2": "Limburg",
    "region3": "Hasselt",
    "region4": "Halen",
    "state_geo_id": 10001,
    "zip": "3545",
    "alias": []
  },
  {
    "city_geo_id": 1000180,
    "city": "Loksbergen",
    "city_full": "Loksbergen",
    "country_geo_id": 23,
    "area": "",
    "lat": 50.93427,
    "lng": 5.06943,
    "region1": "Région Flamande",
    "region2": "Limburg",
    "region3": "Hasselt",
    "region4": "Halen",
    "state_geo_id": 10001,
    "zip": "3545",
    "alias": []
  },
  {
    "city_geo_id": 1000181,
    "city": "Zelem",
    "city_full": "Zelem",
    "country_geo_id": 23,
    "area": "",
    "lat": 50.97935,
    "lng": 5.10482,
    "region1": "Région Flamande",
    "region2": "Limburg",
    "region3": "Hasselt",
    "region4": "Halen",
    "state_geo_id": 10001,
    "zip": "3545",
    "alias": []
  },
  {
    "city_geo_id": 1000182,
    "city": "Ham",
    "city_full": "Ham",
    "country_geo_id": 23,
    "area": "",
    "lat": 51.10728,
    "lng": 5.16256,
    "region1": "Région Flamande",
    "region2": "Limburg",
    "region3": "Hasselt",
    "region4": "Tessenderlo-Ham",
    "state_geo_id": 10001,
    "zip": "3945",
    "alias": []
  },
  {
    "city_geo_id": 1000183,
    "city": "Kwaadmechelen",
    "city_full": "Kwaadmechelen",
    "country_geo_id": 23,
    "area": "",
    "lat": 51.10161,
    "lng": 5.14742,
    "region1": "Région Flamande",
    "region2": "Limburg",
    "region3": "Hasselt",
    "region4": "Tessenderlo-Ham",
    "state_geo_id": 10001,
    "zip": "3945",
    "alias": []
  },
  {
    "city_geo_id": 1000184,
    "city": "Oostham",
    "city_full": "Oostham",
    "country_geo_id": 23,
    "area": "",
    "lat": 51.10344,
    "lng": 5.17815,
    "region1": "Région Flamande",
    "region2": "Limburg",
    "region3": "Hasselt",
    "region4": "Tessenderlo-Ham",
    "state_geo_id": 10001,
    "zip": "3945",
    "alias": []
  },
  {
    "city_geo_id": 1000185,
    "city": "Hasselt",
    "city_full": "Hasselt",
    "country_geo_id": 23,
    "area": "",
    "lat": 50.92973,
    "lng": 5.33823,
    "region1": "Région Flamande",
    "region2": "Limburg",
    "region3": "Hasselt",
    "region4": "Hasselt",
    "state_geo_id": 10001,
    "zip": "3500",
    "alias": []
  },
  {
    "city_geo_id": 1000186,
    "city": "Kermt",
    "city_full": "Kermt",
    "country_geo_id": 23,
    "area": "",
    "lat": 50.94744,
    "lng": 5.25365,
    "region1": "Région Flamande",
    "region2": "Limburg",
    "region3": "Hasselt",
    "region4": "Hasselt",
    "state_geo_id": 10001,
    "zip": "3510",
    "alias": [
      {
        "lang": "NL",
        "alias": "Hasselt"
      }
    ]
  },
  {
    "city_geo_id": 1000187,
    "city": "Kuringen",
    "city_full": "Kuringen",
    "country_geo_id": 23,
    "area": "",
    "lat": 50.94408,
    "lng": 5.30534,
    "region1": "Région Flamande",
    "region2": "Limburg",
    "region3": "Hasselt",
    "region4": "Hasselt",
    "state_geo_id": 10001,
    "zip": "3511",
    "alias": [
      {
        "lang": "NL",
        "alias": "Hasselt"
      }
    ]
  },
  {
    "city_geo_id": 1000188,
    "city": "Sint-Lambrechts-Herk",
    "city_full": "Sint-Lambrechts-Herk",
    "country_geo_id": 23,
    "area": "",
    "lat": 50.89829,
    "lng": 5.30732,
    "region1": "Région Flamande",
    "region2": "Limburg",
    "region3": "Hasselt",
    "region4": "Hasselt",
    "state_geo_id": 10001,
    "zip": "3500",
    "alias": []
  },
  {
    "city_geo_id": 1000189,
    "city": "Spalbeek",
    "city_full": "Spalbeek",
    "country_geo_id": 23,
    "area": "",
    "lat": 50.9497,
    "lng": 5.23024,
    "region1": "Région Flamande",
    "region2": "Limburg",
    "region3": "Hasselt",
    "region4": "Hasselt",
    "state_geo_id": 10001,
    "zip": "3510",
    "alias": [
      {
        "lang": "NL",
        "alias": "Hasselt"
      }
    ]
  },
  {
    "city_geo_id": 1000190,
    "city": "Stevoort",
    "city_full": "Stevoort",
    "country_geo_id": 23,
    "area": "",
    "lat": 50.9161,
    "lng": 5.24987,
    "region1": "Région Flamande",
    "region2": "Limburg",
    "region3": "Hasselt",
    "region4": "Hasselt",
    "state_geo_id": 10001,
    "zip": "3512",
    "alias": [
      {
        "lang": "NL",
        "alias": "Hasselt"
      }
    ]
  },
  {
    "city_geo_id": 1000191,
    "city": "Stokrooie",
    "city_full": "Stokrooie",
    "country_geo_id": 23,
    "area": "",
    "lat": 50.96654,
    "lng": 5.28314,
    "region1": "Région Flamande",
    "region2": "Limburg",
    "region3": "Hasselt",
    "region4": "Hasselt",
    "state_geo_id": 10001,
    "zip": "3511",
    "alias": [
      {
        "lang": "NL",
        "alias": "Hasselt"
      }
    ]
  },
  {
    "city_geo_id": 1000192,
    "city": "Wimmertingen",
    "city_full": "Wimmertingen",
    "country_geo_id": 23,
    "area": "",
    "lat": 50.8833,
    "lng": 5.35295,
    "region1": "Région Flamande",
    "region2": "Limburg",
    "region3": "Hasselt",
    "region4": "Hasselt",
    "state_geo_id": 10001,
    "zip": "3501",
    "alias": [
      {
        "lang": "NL",
        "alias": "Hasselt"
      }
    ]
  },
  {
    "city_geo_id": 1000193,
    "city": "Berbroek",
    "city_full": "Berbroek",
    "country_geo_id": 23,
    "area": "",
    "lat": 50.95033,
    "lng": 5.2084,
    "region1": "Région Flamande",
    "region2": "Limburg",
    "region3": "Hasselt",
    "region4": "Herk-de-Stad",
    "state_geo_id": 10001,
    "zip": "3540",
    "alias": []
  },
  {
    "city_geo_id": 1000194,
    "city": "Donk",
    "city_full": "Donk",
    "country_geo_id": 23,
    "area": "",
    "lat": 50.9392,
    "lng": 5.13396,
    "region1": "Région Flamande",
    "region2": "Limburg",
    "region3": "Hasselt",
    "region4": "Herk-de-Stad",
    "state_geo_id": 10001,
    "zip": "3540",
    "alias": []
  },
  {
    "city_geo_id": 1000195,
    "city": "Herk-de-Stad",
    "city_full": "Herk-de-Stad",
    "country_geo_id": 23,
    "area": "",
    "lat": 50.94097,
    "lng": 5.1671,
    "region1": "Région Flamande",
    "region2": "Limburg",
    "region3": "Hasselt",
    "region4": "Herk-de-Stad",
    "state_geo_id": 10001,
    "zip": "3540",
    "alias": []
  },
  {
    "city_geo_id": 1000196,
    "city": "Schulen",
    "city_full": "Schulen",
    "country_geo_id": 23,
    "area": "",
    "lat": 50.95709,
    "lng": 5.17674,
    "region1": "Région Flamande",
    "region2": "Limburg",
    "region3": "Hasselt",
    "region4": "Herk-de-Stad",
    "state_geo_id": 10001,
    "zip": "3540",
    "alias": []
  },
  {
    "city_geo_id": 1000197,
    "city": "Heusden",
    "city_full": "Heusden (3550)",
    "country_geo_id": 23,
    "area": "",
    "lat": 51.035,
    "lng": 5.28181,
    "region1": "Région Flamande",
    "region2": "Limburg",
    "region3": "Hasselt",
    "region4": "Heusden-Zolder",
    "state_geo_id": 10001,
    "zip": "3550",
    "alias": []
  },
  {
    "city_geo_id": 1000198,
    "city": "Heusden-Zolder",
    "city_full": "Heusden-Zolder",
    "country_geo_id": 23,
    "area": "",
    "lat": 51.0231,
    "lng": 5.31314,
    "region1": "Région Flamande",
    "region2": "Limburg",
    "region3": "Hasselt",
    "region4": "Heusden-Zolder",
    "state_geo_id": 10001,
    "zip": "3550",
    "alias": []
  },
  {
    "city_geo_id": 1000199,
    "city": "Zolder",
    "city_full": "Zolder",
    "country_geo_id": 23,
    "area": "",
    "lat": 51.0231,
    "lng": 5.31314,
    "region1": "Région Flamande",
    "region2": "Limburg",
    "region3": "Hasselt",
    "region4": "Heusden-Zolder",
    "state_geo_id": 10001,
    "zip": "3550",
    "alias": []
  },
  {
    "city_geo_id": 1000200,
    "city": "Heppen",
    "city_full": "Heppen",
    "country_geo_id": 23,
    "area": "",
    "lat": 51.10881,
    "lng": 5.22864,
    "region1": "Région Flamande",
    "region2": "Limburg",
    "region3": "Hasselt",
    "region4": "Leopoldsburg",
    "state_geo_id": 10001,
    "zip": "3971",
    "alias": []
  },
  {
    "city_geo_id": 1000201,
    "city": "Leopoldsburg",
    "city_full": "Leopoldsburg",
    "country_geo_id": 23,
    "area": "",
    "lat": 51.117,
    "lng": 5.26344,
    "region1": "Région Flamande",
    "region2": "Limburg",
    "region3": "Hasselt",
    "region4": "Leopoldsburg",
    "state_geo_id": 10001,
    "zip": "3970",
    "alias": []
  },
  {
    "city_geo_id": 1000202,
    "city": "Linkhout",
    "city_full": "Linkhout",
    "country_geo_id": 23,
    "area": "",
    "lat": 50.96554,
    "lng": 5.13729,
    "region1": "Région Flamande",
    "region2": "Limburg",
    "region3": "Hasselt",
    "region4": "Lummen",
    "state_geo_id": 10001,
    "zip": "3560",
    "alias": []
  },
  {
    "city_geo_id": 1000203,
    "city": "Lummen",
    "city_full": "Lummen",
    "country_geo_id": 23,
    "area": "",
    "lat": 50.98619,
    "lng": 5.19113,
    "region1": "Région Flamande",
    "region2": "Limburg",
    "region3": "Hasselt",
    "region4": "Lummen",
    "state_geo_id": 10001,
    "zip": "3560",
    "alias": []
  },
  {
    "city_geo_id": 1000204,
    "city": "Meldert",
    "city_full": "Meldert (3560)",
    "country_geo_id": 23,
    "area": "",
    "lat": 50.99867,
    "lng": 5.14193,
    "region1": "Région Flamande",
    "region2": "Limburg",
    "region3": "Hasselt",
    "region4": "Lummen",
    "state_geo_id": 10001,
    "zip": "3560",
    "alias": []
  },
  {
    "city_geo_id": 1000205,
    "city": "Binderveld",
    "city_full": "Binderveld",
    "country_geo_id": 23,
    "area": "",
    "lat": 50.86283,
    "lng": 5.17173,
    "region1": "Région Flamande",
    "region2": "Limburg",
    "region3": "Hasselt",
    "region4": "Nieuwerkerken",
    "state_geo_id": 10001,
    "zip": "3850",
    "alias": []
  },
  {
    "city_geo_id": 1000206,
    "city": "Kozen",
    "city_full": "Kozen",
    "country_geo_id": 23,
    "area": "",
    "lat": 50.87498,
    "lng": 5.23982,
    "region1": "Région Flamande",
    "region2": "Limburg",
    "region3": "Hasselt",
    "region4": "Nieuwerkerken",
    "state_geo_id": 10001,
    "zip": "3850",
    "alias": []
  },
  {
    "city_geo_id": 1000207,
    "city": "Nieuwerkerken",
    "city_full": "Nieuwerkerken (3850)",
    "country_geo_id": 23,
    "area": "",
    "lat": 50.86464,
    "lng": 5.19338,
    "region1": "Région Flamande",
    "region2": "Limburg",
    "region3": "Hasselt",
    "region4": "Nieuwerkerken",
    "state_geo_id": 10001,
    "zip": "3850",
    "alias": []
  },
  {
    "city_geo_id": 1000208,
    "city": "Wijer",
    "city_full": "Wijer",
    "country_geo_id": 23,
    "area": "",
    "lat": 50.89867,
    "lng": 5.22422,
    "region1": "Région Flamande",
    "region2": "Limburg",
    "region3": "Hasselt",
    "region4": "Nieuwerkerken",
    "state_geo_id": 10001,
    "zip": "3850",
    "alias": []
  },
  {
    "city_geo_id": 1000209,
    "city": "Opglabbeek",
    "city_full": "Opglabbeek",
    "country_geo_id": 23,
    "area": "",
    "lat": 51.04211,
    "lng": 5.58321,
    "region1": "Région Flamande",
    "region2": "Limburg",
    "region3": "Maaseik",
    "region4": "Oudsbergen",
    "state_geo_id": 10001,
    "zip": "3660",
    "alias": [
      {
        "lang": "NL",
        "alias": "Oudsbergen"
      }
    ]
  },
  {
    "city_geo_id": 1000210,
    "city": "Aalst",
    "city_full": "Aalst (3800)",
    "country_geo_id": 23,
    "area": "",
    "lat": 50.78145,
    "lng": 5.21217,
    "region1": "Région Flamande",
    "region2": "Limburg",
    "region3": "Hasselt",
    "region4": "Sint-Truiden",
    "state_geo_id": 10001,
    "zip": "3800",
    "alias": []
  },
  {
    "city_geo_id": 1000211,
    "city": "Brustem",
    "city_full": "Brustem",
    "country_geo_id": 23,
    "area": "",
    "lat": 50.80175,
    "lng": 5.21925,
    "region1": "Région Flamande",
    "region2": "Limburg",
    "region3": "Hasselt",
    "region4": "Sint-Truiden",
    "state_geo_id": 10001,
    "zip": "3800",
    "alias": []
  },
  {
    "city_geo_id": 1000212,
    "city": "Duras",
    "city_full": "Duras",
    "country_geo_id": 23,
    "area": "",
    "lat": 50.83515,
    "lng": 5.14649,
    "region1": "Région Flamande",
    "region2": "Limburg",
    "region3": "Hasselt",
    "region4": "Sint-Truiden",
    "state_geo_id": 10001,
    "zip": "3803",
    "alias": []
  },
  {
    "city_geo_id": 1000213,
    "city": "Engelmanshoven",
    "city_full": "Engelmanshoven",
    "country_geo_id": 23,
    "area": "",
    "lat": 50.7742,
    "lng": 5.2531,
    "region1": "Région Flamande",
    "region2": "Limburg",
    "region3": "Hasselt",
    "region4": "Sint-Truiden",
    "state_geo_id": 10001,
    "zip": "3800",
    "alias": []
  },
  {
    "city_geo_id": 1000214,
    "city": "Gelinden",
    "city_full": "Gelinden",
    "country_geo_id": 23,
    "area": "",
    "lat": 50.76706,
    "lng": 5.26289,
    "region1": "Région Flamande",
    "region2": "Limburg",
    "region3": "Hasselt",
    "region4": "Sint-Truiden",
    "state_geo_id": 10001,
    "zip": "3800",
    "alias": []
  },
  {
    "city_geo_id": 1000215,
    "city": "Gorsem",
    "city_full": "Gorsem",
    "country_geo_id": 23,
    "area": "",
    "lat": 50.83345,
    "lng": 5.16466,
    "region1": "Région Flamande",
    "region2": "Limburg",
    "region3": "Hasselt",
    "region4": "Sint-Truiden",
    "state_geo_id": 10001,
    "zip": "3803",
    "alias": []
  },
  {
    "city_geo_id": 1000216,
    "city": "Groot-Gelmen",
    "city_full": "Groot-Gelmen",
    "country_geo_id": 23,
    "area": "",
    "lat": 50.7821,
    "lng": 5.26572,
    "region1": "Région Flamande",
    "region2": "Limburg",
    "region3": "Hasselt",
    "region4": "Sint-Truiden",
    "state_geo_id": 10001,
    "zip": "3800",
    "alias": []
  },
  {
    "city_geo_id": 1000217,
    "city": "Halmaal",
    "city_full": "Halmaal",
    "country_geo_id": 23,
    "area": "",
    "lat": 50.80429,
    "lng": 5.1544,
    "region1": "Région Flamande",
    "region2": "Limburg",
    "region3": "Hasselt",
    "region4": "Sint-Truiden",
    "state_geo_id": 10001,
    "zip": "3800",
    "alias": []
  },
  {
    "city_geo_id": 1000218,
    "city": "Kerkom-bij-Sint-Truiden",
    "city_full": "Kerkom-bij-Sint-Truiden",
    "country_geo_id": 23,
    "area": "",
    "lat": 50.77434,
    "lng": 5.17779,
    "region1": "Région Flamande",
    "region2": "Limburg",
    "region3": "Hasselt",
    "region4": "Sint-Truiden",
    "state_geo_id": 10001,
    "zip": "3800",
    "alias": []
  },
  {
    "city_geo_id": 1000219,
    "city": "Ordingen",
    "city_full": "Ordingen",
    "country_geo_id": 23,
    "area": "",
    "lat": 50.81078,
    "lng": 5.23297,
    "region1": "Région Flamande",
    "region2": "Limburg",
    "region3": "Hasselt",
    "region4": "Sint-Truiden",
    "state_geo_id": 10001,
    "zip": "3800",
    "alias": []
  },
  {
    "city_geo_id": 1000220,
    "city": "Runkelen",
    "city_full": "Runkelen",
    "country_geo_id": 23,
    "area": "",
    "lat": 50.84645,
    "lng": 5.15426,
    "region1": "Région Flamande",
    "region2": "Limburg",
    "region3": "Hasselt",
    "region4": "Sint-Truiden",
    "state_geo_id": 10001,
    "zip": "3803",
    "alias": []
  },
  {
    "city_geo_id": 1000221,
    "city": "Sint-Truiden",
    "city_full": "Sint-Truiden",
    "country_geo_id": 23,
    "area": "",
    "lat": 50.81546,
    "lng": 5.18666,
    "region1": "Région Flamande",
    "region2": "Limburg",
    "region3": "Hasselt",
    "region4": "Sint-Truiden",
    "state_geo_id": 10001,
    "zip": "3800",
    "alias": [
      {
        "lang": "NL",
        "alias": "St. Truiden"
      }
    ]
  },
  {
    "city_geo_id": 1000222,
    "city": "Velm",
    "city_full": "Velm",
    "country_geo_id": 23,
    "area": "",
    "lat": 50.77444,
    "lng": 5.13496,
    "region1": "Région Flamande",
    "region2": "Limburg",
    "region3": "Hasselt",
    "region4": "Sint-Truiden",
    "state_geo_id": 10001,
    "zip": "3806",
    "alias": []
  },
  {
    "city_geo_id": 1000223,
    "city": "Wilderen",
    "city_full": "Wilderen",
    "country_geo_id": 23,
    "area": "",
    "lat": 50.81806,
    "lng": 5.14328,
    "region1": "Région Flamande",
    "region2": "Limburg",
    "region3": "Hasselt",
    "region4": "Sint-Truiden",
    "state_geo_id": 10001,
    "zip": "3803",
    "alias": []
  },
  {
    "city_geo_id": 1000224,
    "city": "Zepperen",
    "city_full": "Zepperen",
    "country_geo_id": 23,
    "area": "",
    "lat": 50.82117,
    "lng": 5.24763,
    "region1": "Région Flamande",
    "region2": "Limburg",
    "region3": "Hasselt",
    "region4": "Sint-Truiden",
    "state_geo_id": 10001,
    "zip": "3800",
    "alias": []
  },
  {
    "city_geo_id": 1000225,
    "city": "Tessenderlo",
    "city_full": "Tessenderlo",
    "country_geo_id": 23,
    "area": "",
    "lat": 51.0678,
    "lng": 5.08755,
    "region1": "Région Flamande",
    "region2": "Limburg",
    "region3": "Hasselt",
    "region4": "Tessenderlo-Ham",
    "state_geo_id": 10001,
    "zip": "3980",
    "alias": []
  },
  {
    "city_geo_id": 1000226,
    "city": "Zonhoven",
    "city_full": "Zonhoven",
    "country_geo_id": 23,
    "area": "",
    "lat": 50.98713,
    "lng": 5.3672,
    "region1": "Région Flamande",
    "region2": "Limburg",
    "region3": "Hasselt",
    "region4": "Zonhoven",
    "state_geo_id": 10001,
    "zip": "3520",
    "alias": []
  },
  {
    "city_geo_id": 1000227,
    "city": "Zutendaal",
    "city_full": "Zutendaal",
    "country_geo_id": 23,
    "area": "",
    "lat": 50.93195,
    "lng": 5.5722,
    "region1": "Région Flamande",
    "region2": "Limburg",
    "region3": "Hasselt",
    "region4": "Zutendaal",
    "state_geo_id": 10001,
    "zip": "3690",
    "alias": []
  },
  {
    "city_geo_id": 1000228,
    "city": "Bocholt",
    "city_full": "Bocholt",
    "country_geo_id": 23,
    "area": "",
    "lat": 51.17251,
    "lng": 5.57816,
    "region1": "Région Flamande",
    "region2": "Limburg",
    "region3": "Maaseik",
    "region4": "Bocholt",
    "state_geo_id": 10001,
    "zip": "3950",
    "alias": []
  },
  {
    "city_geo_id": 1000229,
    "city": "Kaulille",
    "city_full": "Kaulille",
    "country_geo_id": 23,
    "area": "",
    "lat": 51.18808,
    "lng": 5.51797,
    "region1": "Région Flamande",
    "region2": "Limburg",
    "region3": "Maaseik",
    "region4": "Bocholt",
    "state_geo_id": 10001,
    "zip": "3950",
    "alias": []
  },
  {
    "city_geo_id": 1000230,
    "city": "Reppel",
    "city_full": "Reppel",
    "country_geo_id": 23,
    "area": "",
    "lat": 51.15456,
    "lng": 5.56145,
    "region1": "Région Flamande",
    "region2": "Limburg",
    "region3": "Maaseik",
    "region4": "Bocholt",
    "state_geo_id": 10001,
    "zip": "3950",
    "alias": []
  },
  {
    "city_geo_id": 1000231,
    "city": "Beek",
    "city_full": "Beek",
    "country_geo_id": 23,
    "area": "",
    "lat": 51.15522,
    "lng": 5.60272,
    "region1": "Région Flamande",
    "region2": "Limburg",
    "region3": "Maaseik",
    "region4": "Bree",
    "state_geo_id": 10001,
    "zip": "3960",
    "alias": []
  },
  {
    "city_geo_id": 1000232,
    "city": "Bree",
    "city_full": "Bree",
    "country_geo_id": 23,
    "area": "",
    "lat": 51.14109,
    "lng": 5.59762,
    "region1": "Région Flamande",
    "region2": "Limburg",
    "region3": "Maaseik",
    "region4": "Bree",
    "state_geo_id": 10001,
    "zip": "3960",
    "alias": []
  },
  {
    "city_geo_id": 1000233,
    "city": "Gerdingen",
    "city_full": "Gerdingen",
    "country_geo_id": 23,
    "area": "",
    "lat": 51.14734,
    "lng": 5.58873,
    "region1": "Région Flamande",
    "region2": "Limburg",
    "region3": "Maaseik",
    "region4": "Bree",
    "state_geo_id": 10001,
    "zip": "3960",
    "alias": []
  },
  {
    "city_geo_id": 1000234,
    "city": "Opitter",
    "city_full": "Opitter",
    "country_geo_id": 23,
    "area": "",
    "lat": 51.11732,
    "lng": 5.64603,
    "region1": "Région Flamande",
    "region2": "Limburg",
    "region3": "Maaseik",
    "region4": "Bree",
    "state_geo_id": 10001,
    "zip": "3960",
    "alias": []
  },
  {
    "city_geo_id": 1000235,
    "city": "Tongerlo",
    "city_full": "Tongerlo (3960)",
    "country_geo_id": 23,
    "area": "",
    "lat": 51.12698,
    "lng": 5.65998,
    "region1": "Région Flamande",
    "region2": "Limburg",
    "region3": "Maaseik",
    "region4": "Bree",
    "state_geo_id": 10001,
    "zip": "3960",
    "alias": []
  },
  {
    "city_geo_id": 1000236,
    "city": "Dilsen-Stokkem",
    "city_full": "Dilsen-Stokkem",
    "country_geo_id": 23,
    "area": "",
    "lat": 51.0206,
    "lng": 5.7434,
    "region1": "Région Flamande",
    "region2": "Limburg",
    "region3": "Maaseik",
    "region4": "Dilsen-Stokkem",
    "state_geo_id": 10001,
    "zip": "3650",
    "alias": [
      {
        "lang": "NL",
        "alias": "Dilsen"
      }
    ]
  },
  {
    "city_geo_id": 1000237,
    "city": "Elen",
    "city_full": "Elen",
    "country_geo_id": 23,
    "area": "",
    "lat": 51.06649,
    "lng": 5.75927,
    "region1": "Région Flamande",
    "region2": "Limburg",
    "region3": "Maaseik",
    "region4": "Dilsen-Stokkem",
    "state_geo_id": 10001,
    "zip": "3650",
    "alias": []
  },
  {
    "city_geo_id": 1000238,
    "city": "Lanklaar",
    "city_full": "Lanklaar",
    "country_geo_id": 23,
    "area": "",
    "lat": 51.0129,
    "lng": 5.71974,
    "region1": "Région Flamande",
    "region2": "Limburg",
    "region3": "Maaseik",
    "region4": "Dilsen-Stokkem",
    "state_geo_id": 10001,
    "zip": "3650",
    "alias": []
  },
  {
    "city_geo_id": 1000239,
    "city": "Rotem",
    "city_full": "Rotem",
    "country_geo_id": 23,
    "area": "",
    "lat": 51.05325,
    "lng": 5.73851,
    "region1": "Région Flamande",
    "region2": "Limburg",
    "region3": "Maaseik",
    "region4": "Dilsen-Stokkem",
    "state_geo_id": 10001,
    "zip": "3650",
    "alias": []
  },
  {
    "city_geo_id": 1000240,
    "city": "Stokkem",
    "city_full": "Stokkem",
    "country_geo_id": 23,
    "area": "",
    "lat": 51.0206,
    "lng": 5.7434,
    "region1": "Région Flamande",
    "region2": "Limburg",
    "region3": "Maaseik",
    "region4": "Dilsen-Stokkem",
    "state_geo_id": 10001,
    "zip": "3650",
    "alias": []
  },
  {
    "city_geo_id": 1000241,
    "city": "Achel",
    "city_full": "Achel",
    "country_geo_id": 23,
    "area": "",
    "lat": 51.25454,
    "lng": 5.47859,
    "region1": "Région Flamande",
    "region2": "Limburg",
    "region3": "Maaseik",
    "region4": "Hamont-Achel",
    "state_geo_id": 10001,
    "zip": "3930",
    "alias": []
  },
  {
    "city_geo_id": 1000242,
    "city": "Hamont",
    "city_full": "Hamont",
    "country_geo_id": 23,
    "area": "",
    "lat": 51.25146,
    "lng": 5.54599,
    "region1": "Région Flamande",
    "region2": "Limburg",
    "region3": "Maaseik",
    "region4": "Hamont-Achel",
    "state_geo_id": 10001,
    "zip": "3930",
    "alias": []
  },
  {
    "city_geo_id": 1000243,
    "city": "Hamont-Achel",
    "city_full": "Hamont-Achel",
    "country_geo_id": 23,
    "area": "",
    "lat": 51.25146,
    "lng": 5.54599,
    "region1": "Région Flamande",
    "region2": "Limburg",
    "region3": "Maaseik",
    "region4": "Hamont-Achel",
    "state_geo_id": 10001,
    "zip": "3930",
    "alias": []
  },
  {
    "city_geo_id": 1000244,
    "city": "Eksel",
    "city_full": "Eksel",
    "country_geo_id": 23,
    "area": "",
    "lat": 51.15386,
    "lng": 5.39464,
    "region1": "Région Flamande",
    "region2": "Limburg",
    "region3": "Maaseik",
    "region4": "Hechtel-Eksel",
    "state_geo_id": 10001,
    "zip": "3941",
    "alias": []
  },
  {
    "city_geo_id": 1000245,
    "city": "Hechtel",
    "city_full": "Hechtel",
    "country_geo_id": 23,
    "area": "",
    "lat": 51.12603,
    "lng": 5.36535,
    "region1": "Région Flamande",
    "region2": "Limburg",
    "region3": "Maaseik",
    "region4": "Hechtel-Eksel",
    "state_geo_id": 10001,
    "zip": "3940",
    "alias": []
  },
  {
    "city_geo_id": 1000246,
    "city": "Hechtel-Eksel",
    "city_full": "Hechtel-Eksel",
    "country_geo_id": 23,
    "area": "",
    "lat": 51.15386,
    "lng": 5.39464,
    "region1": "Région Flamande",
    "region2": "Limburg",
    "region3": "Maaseik",
    "region4": "Hechtel-Eksel",
    "state_geo_id": 10001,
    "zip": "3940",
    "alias": []
  },
  {
    "city_geo_id": 1000247,
    "city": "Helchteren",
    "city_full": "Helchteren",
    "country_geo_id": 23,
    "area": "",
    "lat": 51.05615,
    "lng": 5.3844,
    "region1": "Région Flamande",
    "region2": "Limburg",
    "region3": "Maaseik",
    "region4": "Houthalen-Helchteren",
    "state_geo_id": 10001,
    "zip": "3530",
    "alias": []
  },
  {
    "city_geo_id": 1000248,
    "city": "Houthalen",
    "city_full": "Houthalen",
    "country_geo_id": 23,
    "area": "",
    "lat": 51.03089,
    "lng": 5.3721,
    "region1": "Région Flamande",
    "region2": "Limburg",
    "region3": "Maaseik",
    "region4": "Houthalen-Helchteren",
    "state_geo_id": 10001,
    "zip": "3530",
    "alias": []
  },
  {
    "city_geo_id": 1000249,
    "city": "Houthalen-Helchteren",
    "city_full": "Houthalen-Helchteren",
    "country_geo_id": 23,
    "area": "",
    "lat": 51.03089,
    "lng": 5.3721,
    "region1": "Région Flamande",
    "region2": "Limburg",
    "region3": "Maaseik",
    "region4": "Houthalen-Helchteren",
    "state_geo_id": 10001,
    "zip": "3530",
    "alias": []
  },
  {
    "city_geo_id": 1000250,
    "city": "Kessenich",
    "city_full": "Kessenich",
    "country_geo_id": 23,
    "area": "",
    "lat": 51.15031,
    "lng": 5.82453,
    "region1": "Région Flamande",
    "region2": "Limburg",
    "region3": "Maaseik",
    "region4": "Kinrooi",
    "state_geo_id": 10001,
    "zip": "3640",
    "alias": []
  },
  {
    "city_geo_id": 1000251,
    "city": "Kinrooi",
    "city_full": "Kinrooi",
    "country_geo_id": 23,
    "area": "",
    "lat": 51.14478,
    "lng": 5.74095,
    "region1": "Région Flamande",
    "region2": "Limburg",
    "region3": "Maaseik",
    "region4": "Kinrooi",
    "state_geo_id": 10001,
    "zip": "3640",
    "alias": []
  },
  {
    "city_geo_id": 1000252,
    "city": "Molenbeersel",
    "city_full": "Molenbeersel",
    "country_geo_id": 23,
    "area": "",
    "lat": 51.16978,
    "lng": 5.73734,
    "region1": "Région Flamande",
    "region2": "Limburg",
    "region3": "Maaseik",
    "region4": "Kinrooi",
    "state_geo_id": 10001,
    "zip": "3640",
    "alias": []
  },
  {
    "city_geo_id": 1000253,
    "city": "Ophoven",
    "city_full": "Ophoven",
    "country_geo_id": 23,
    "area": "",
    "lat": 51.12606,
    "lng": 5.80222,
    "region1": "Région Flamande",
    "region2": "Limburg",
    "region3": "Maaseik",
    "region4": "Kinrooi",
    "state_geo_id": 10001,
    "zip": "3640",
    "alias": []
  },
  {
    "city_geo_id": 1000254,
    "city": "Lommel",
    "city_full": "Lommel",
    "country_geo_id": 23,
    "area": "",
    "lat": 51.22852,
    "lng": 5.31367,
    "region1": "Région Flamande",
    "region2": "Limburg",
    "region3": "Maaseik",
    "region4": "Lommel",
    "state_geo_id": 10001,
    "zip": "3920",
    "alias": []
  },
  {
    "city_geo_id": 1000255,
    "city": "Maaseik",
    "city_full": "Maaseik",
    "country_geo_id": 23,
    "area": "",
    "lat": 51.09483,
    "lng": 5.79391,
    "region1": "Région Flamande",
    "region2": "Limburg",
    "region3": "Maaseik",
    "region4": "Maaseik",
    "state_geo_id": 10001,
    "zip": "3680",
    "alias": []
  },
  {
    "city_geo_id": 1000256,
    "city": "Neeroeteren",
    "city_full": "Neeroeteren",
    "country_geo_id": 23,
    "area": "",
    "lat": 51.08865,
    "lng": 5.70484,
    "region1": "Région Flamande",
    "region2": "Limburg",
    "region3": "Maaseik",
    "region4": "Maaseik",
    "state_geo_id": 10001,
    "zip": "3680",
    "alias": []
  },
  {
    "city_geo_id": 1000257,
    "city": "Opoeteren",
    "city_full": "Opoeteren",
    "country_geo_id": 23,
    "area": "",
    "lat": 51.06945,
    "lng": 5.6549,
    "region1": "Région Flamande",
    "region2": "Limburg",
    "region3": "Maaseik",
    "region4": "Maaseik",
    "state_geo_id": 10001,
    "zip": "3680",
    "alias": []
  },
  {
    "city_geo_id": 1000258,
    "city": "Ellikom",
    "city_full": "Ellikom",
    "country_geo_id": 23,
    "area": "",
    "lat": 51.12996,
    "lng": 5.5249,
    "region1": "Région Flamande",
    "region2": "Limburg",
    "region3": "Maaseik",
    "region4": "Oudsbergen",
    "state_geo_id": 10001,
    "zip": "3670",
    "alias": []
  },
  {
    "city_geo_id": 1000259,
    "city": "Gruitrode",
    "city_full": "Gruitrode",
    "country_geo_id": 23,
    "area": "",
    "lat": 51.08944,
    "lng": 5.58849,
    "region1": "Région Flamande",
    "region2": "Limburg",
    "region3": "Maaseik",
    "region4": "Oudsbergen",
    "state_geo_id": 10001,
    "zip": "3670",
    "alias": []
  },
  {
    "city_geo_id": 1000260,
    "city": "Meeuwen",
    "city_full": "Meeuwen",
    "country_geo_id": 23,
    "area": "",
    "lat": 51.09611,
    "lng": 5.521,
    "region1": "Région Flamande",
    "region2": "Limburg",
    "region3": "Maaseik",
    "region4": "Oudsbergen",
    "state_geo_id": 10001,
    "zip": "3670",
    "alias": []
  },
  {
    "city_geo_id": 1000261,
    "city": "Meeuwen-Gruitrode",
    "city_full": "Meeuwen-Gruitrode",
    "country_geo_id": 23,
    "area": "",
    "lat": 51.08944,
    "lng": 5.58849,
    "region1": "Région Flamande",
    "region2": "Limburg",
    "region3": "Maaseik",
    "region4": "Oudsbergen",
    "state_geo_id": 10001,
    "zip": "3670",
    "alias": []
  },
  {
    "city_geo_id": 1000262,
    "city": "Neerglabbeek",
    "city_full": "Neerglabbeek",
    "country_geo_id": 23,
    "area": "",
    "lat": 51.09184,
    "lng": 5.61426,
    "region1": "Région Flamande",
    "region2": "Limburg",
    "region3": "Maaseik",
    "region4": "Oudsbergen",
    "state_geo_id": 10001,
    "zip": "3670",
    "alias": []
  },
  {
    "city_geo_id": 1000263,
    "city": "Wijshagen",
    "city_full": "Wijshagen",
    "country_geo_id": 23,
    "area": "",
    "lat": 51.10568,
    "lng": 5.56124,
    "region1": "Région Flamande",
    "region2": "Limburg",
    "region3": "Maaseik",
    "region4": "Oudsbergen",
    "state_geo_id": 10001,
    "zip": "3670",
    "alias": []
  },
  {
    "city_geo_id": 1000264,
    "city": "Neerpelt",
    "city_full": "Neerpelt",
    "country_geo_id": 23,
    "area": "",
    "lat": 51.22891,
    "lng": 5.4316,
    "region1": "Région Flamande",
    "region2": "Limburg",
    "region3": "Maaseik",
    "region4": "Pelt",
    "state_geo_id": 10001,
    "zip": "3910",
    "alias": [
      {
        "lang": "NL",
        "alias": "Pelt"
      }
    ]
  },
  {
    "city_geo_id": 1000265,
    "city": "Sint-Huibrechts-Lille",
    "city_full": "Sint-Huibrechts-Lille",
    "country_geo_id": 23,
    "area": "",
    "lat": 51.22605,
    "lng": 5.48479,
    "region1": "Région Flamande",
    "region2": "Limburg",
    "region3": "Maaseik",
    "region4": "Pelt",
    "state_geo_id": 10001,
    "zip": "3910",
    "alias": []
  },
  {
    "city_geo_id": 1000266,
    "city": "Overpelt",
    "city_full": "Overpelt",
    "country_geo_id": 23,
    "area": "",
    "lat": 51.21118,
    "lng": 5.42546,
    "region1": "Région Flamande",
    "region2": "Limburg",
    "region3": "Maaseik",
    "region4": "Pelt",
    "state_geo_id": 10001,
    "zip": "3900",
    "alias": [
      {
        "lang": "NL",
        "alias": "Pelt",
        "override_default": true
      }
    ]
  },
  {
    "city_geo_id": 1000267,
    "city": "Grote-Brogel",
    "city_full": "Grote-Brogel",
    "country_geo_id": 23,
    "area": "",
    "lat": 51.15345,
    "lng": 5.50569,
    "region1": "Région Flamande",
    "region2": "Limburg",
    "region3": "Maaseik",
    "region4": "Peer",
    "state_geo_id": 10001,
    "zip": "3990",
    "alias": []
  },
  {
    "city_geo_id": 1000268,
    "city": "Kleine-Brogel",
    "city_full": "Kleine-Brogel",
    "country_geo_id": 23,
    "area": "",
    "lat": 51.17238,
    "lng": 5.45026,
    "region1": "Région Flamande",
    "region2": "Limburg",
    "region3": "Maaseik",
    "region4": "Peer",
    "state_geo_id": 10001,
    "zip": "3990",
    "alias": []
  },
  {
    "city_geo_id": 1000269,
    "city": "Peer",
    "city_full": "Peer",
    "country_geo_id": 23,
    "area": "",
    "lat": 51.13303,
    "lng": 5.45174,
    "region1": "Région Flamande",
    "region2": "Limburg",
    "region3": "Maaseik",
    "region4": "Peer",
    "state_geo_id": 10001,
    "zip": "3990",
    "alias": []
  },
  {
    "city_geo_id": 1000270,
    "city": "Wijchmaal",
    "city_full": "Wijchmaal",
    "country_geo_id": 23,
    "area": "",
    "lat": 51.13573,
    "lng": 5.41394,
    "region1": "Région Flamande",
    "region2": "Limburg",
    "region3": "Maaseik",
    "region4": "Peer",
    "state_geo_id": 10001,
    "zip": "3990",
    "alias": []
  },
  {
    "city_geo_id": 1000271,
    "city": "Alken",
    "city_full": "Alken",
    "country_geo_id": 23,
    "area": "",
    "lat": 50.87599,
    "lng": 5.30768,
    "region1": "Région Flamande",
    "region2": "Limburg",
    "region3": "Tongeren",
    "region4": "Alken",
    "state_geo_id": 10001,
    "zip": "3570",
    "alias": []
  },
  {
    "city_geo_id": 1000272,
    "city": "Beverst",
    "city_full": "Beverst",
    "country_geo_id": 23,
    "area": "",
    "lat": 50.89158,
    "lng": 5.47349,
    "region1": "Région Flamande",
    "region2": "Limburg",
    "region3": "Tongeren",
    "region4": "Bilzen-Hoeselt",
    "state_geo_id": 10001,
    "zip": "3740",
    "alias": []
  },
  {
    "city_geo_id": 1000273,
    "city": "Bilzen",
    "city_full": "Bilzen",
    "country_geo_id": 23,
    "area": "",
    "lat": 50.87074,
    "lng": 5.51803,
    "region1": "Région Flamande",
    "region2": "Limburg",
    "region3": "Tongeren",
    "region4": "Bilzen-Hoeselt",
    "state_geo_id": 10001,
    "zip": "3740",
    "alias": []
  },
  {
    "city_geo_id": 1000274,
    "city": "Eigenbilzen",
    "city_full": "Eigenbilzen",
    "country_geo_id": 23,
    "area": "",
    "lat": 50.87534,
    "lng": 5.57396,
    "region1": "Région Flamande",
    "region2": "Limburg",
    "region3": "Tongeren",
    "region4": "Bilzen-Hoeselt",
    "state_geo_id": 10001,
    "zip": "3740",
    "alias": []
  },
  {
    "city_geo_id": 1000275,
    "city": "Grote-Spouwen",
    "city_full": "Grote-Spouwen",
    "country_geo_id": 23,
    "area": "",
    "lat": 50.83368,
    "lng": 5.55298,
    "region1": "Région Flamande",
    "region2": "Limburg",
    "region3": "Tongeren",
    "region4": "Bilzen-Hoeselt",
    "state_geo_id": 10001,
    "zip": "3740",
    "alias": []
  },
  {
    "city_geo_id": 1000276,
    "city": "Hees",
    "city_full": "Hees",
    "country_geo_id": 23,
    "area": "",
    "lat": 50.8455,
    "lng": 5.60936,
    "region1": "Région Flamande",
    "region2": "Limburg",
    "region3": "Tongeren",
    "region4": "Bilzen-Hoeselt",
    "state_geo_id": 10001,
    "zip": "3740",
    "alias": []
  },
  {
    "city_geo_id": 1000277,
    "city": "Hoelbeek",
    "city_full": "Hoelbeek",
    "country_geo_id": 23,
    "area": "",
    "lat": 50.87393,
    "lng": 5.55892,
    "region1": "Région Flamande",
    "region2": "Limburg",
    "region3": "Tongeren",
    "region4": "Bilzen-Hoeselt",
    "state_geo_id": 10001,
    "zip": "3746",
    "alias": []
  },
  {
    "city_geo_id": 1000278,
    "city": "Kleine-Spouwen",
    "city_full": "Kleine-Spouwen",
    "country_geo_id": 23,
    "area": "",
    "lat": 50.83828,
    "lng": 5.54734,
    "region1": "Région Flamande",
    "region2": "Limburg",
    "region3": "Tongeren",
    "region4": "Bilzen-Hoeselt",
    "state_geo_id": 10001,
    "zip": "3740",
    "alias": []
  },
  {
    "city_geo_id": 1000279,
    "city": "Martenslinde",
    "city_full": "Martenslinde",
    "country_geo_id": 23,
    "area": "",
    "lat": 50.85267,
    "lng": 5.53471,
    "region1": "Région Flamande",
    "region2": "Limburg",
    "region3": "Tongeren",
    "region4": "Bilzen-Hoeselt",
    "state_geo_id": 10001,
    "zip": "3742",
    "alias": []
  },
  {
    "city_geo_id": 1000280,
    "city": "Mopertingen",
    "city_full": "Mopertingen",
    "country_geo_id": 23,
    "area": "",
    "lat": 50.86255,
    "lng": 5.5742,
    "region1": "Région Flamande",
    "region2": "Limburg",
    "region3": "Tongeren",
    "region4": "Bilzen-Hoeselt",
    "state_geo_id": 10001,
    "zip": "3740",
    "alias": []
  },